[{"id": 1, "chain": "cineworld", "name": "Aberdeen Queens Link", "address": "Queens Links Leisure Park, Links Road, Aberdeen, AB24 5EN", "latitude": 57.150117, "longitude": -2.078841, "link": "https://www.cineworld.co.uk/cinemas/aberdeen-queens-links", "google_place_id": "ChIJDwrDI0IOhEgR_H8iZ8CLc08"}, {"id": 2, "chain": "cineworld", "name": "Aberdeen Union Sq", "address": "Union Square, Guild Square, Aberdeen, AB11 5RG", "latitude": 57.144108, "longitude": -2.096522, "link": "https://www.cineworld.co.uk/cinemas/aberdeen-union-square", "google_place_id": "ChIJQS04sjsOhEgRJz-VqJ5JuO4"}, {"id": 3, "chain": "cineworld", "name": "Aldershot", "address": "Westgate, Aldershot, GU11 1WG", "latitude": 51.24986, "longitude": -0.768597, "link": "https://www.cineworld.co.uk/cinemas/aldershot", "google_place_id": "ChIJN15kJEIOhEgREN-pZQvOMy8"}, {"id": 4, "chain": "cineworld", "name": "Ashford", "address": "Eureka Entertainment Centre\u00a0, Rutherford Road, Ashford, TN25 4BN", "latitude": 51.160658, "longitude": 0.873679, "link": "https://www.cineworld.co.uk/cinemas/ashford", "google_place_id": "ChIJDYEUu27a3kcRpH3iOE_WlTs"}, {"id": 5, "chain": "cineworld", "name": "Ashton Under Lyne", "address": "Ashton Leisure Park\u00a0, Fold Way, Ashton-under-Lyne, OL7 0PG", "latitude": 53.489293, "longitude": -2.110055, "link": "https://www.cineworld.co.uk/cinemas/ashton-under-lyne", "google_place_id": "ChIJ197jho1DcUgRi8vgg2qsivc"}, {"id": 6, "chain": "cineworld", "name": "Basildon", "address": "Festival Leisure Park, Basildon, SS14 3WB", "latitude": 51.585087, "longitude": 0.462522, "link": "https://www.cineworld.co.uk/cinemas/basildon", "google_place_id": "ChIJtVXSHqXG2EcRxaXBn71YjF8"}, {"id": 7, "chain": "cineworld", "name": "Bedford", "address": "Aspects Leisure Park, Newnham Avenue, Bedford, MK41 9LW", "latitude": 52.133132, "longitude": -0.445533, "link": "https://www.cineworld.co.uk/cinemas/bedford", "google_place_id": "ChIJr_SWlPG2d0gR_IcLwif4kXI"}, {"id": 8, "chain": "cineworld", "name": "Birmingham Broad Street", "address": "181 Broad Street, Birmingham, B15 1DA", "latitude": 52.474282, "longitude": -1.915669, "link": "https://www.cineworld.co.uk/cinemas/birmingham-broad-street", "google_place_id": "ChIJDWnhqSWxcEgRQRlVgacZ7WY"}, {"id": 9, "chain": "cineworld", "name": "Birmingham Nec", "address": "Resorts World, Pendigo Way, Birmingham, B40 1PU", "latitude": 52.447827, "longitude": -1.717817, "link": "https://www.cineworld.co.uk/cinemas/birmingham-nec", "google_place_id": "ChIJcWnleqRad0gRnew_cMN45qo"}, {"id": 10, "chain": "cineworld", "name": "Boldon Tyne & Wear", "address": "Boldon Leisure Park, Bolden Colliery, Tyne and Wear, NE35 9PB", "latitude": 54.947306, "longitude": -1.465253, "link": "https://www.cineworld.co.uk/cinemas/boldon-tyne-and-wear", "google_place_id": "ChIJzZSAhHxlfkgRaBTCxaiohsk"}, {"id": 11, "chain": "cineworld", "name": "Bolton", "address": "The Valley, 15 Eagley Brook Way, Bolton, BL1 8TS", "latitude": 53.5978, "longitude": -2.42249, "link": "https://www.cineworld.co.uk/cinemas/bolton", "google_place_id": "ChIJA6cXyeWme0gRS_IztRcIvrM"}, {"id": 12, "chain": "cineworld", "name": "Bracknell", "address": "Eagle Lane, Bracknell, RG12 1BG", "latitude": 51.417171, "longitude": -0.75072, "link": "https://www.cineworld.co.uk/cinemas/bracknell", "google_place_id": "ChIJWaWJ2Rx-dkgR60sfWuQ3jEQ"}, {"id": 13, "chain": "cineworld", "name": "Bradford", "address": "Bradford Leisure Exchange, Vicar Lane, Bradford, BD1 5LD", "latitude": 53.79164, "longitude": -1.7471, "link": "https://www.cineworld.co.uk/cinemas/bradford", "google_place_id": "ChIJVbj3j03he0gRQIJKSBZN0Qw"}, {"id": 14, "chain": "cineworld", "name": "Braintree", "address": "Freeport Leisure, Charter Way, Braintree, CM77 8YH", "latitude": 51.867798, "longitude": 0.572521, "link": "https://www.cineworld.co.uk/cinemas/braintree", "google_place_id": "ChIJqTuh_Arw2EcRLefvqM7PvS8"}, {"id": 15, "chain": "cineworld", "name": "Brighton", "address": "Brighton Marina Village, Brighton, BN2 5UF", "latitude": 50.812769, "longitude": -0.105785, "link": "https://www.cineworld.co.uk/cinemas/brighton", "google_place_id": "ChIJi_cBp8-FdUgR5f9GMImSBPQ"}, {"id": 17, "chain": "cineworld", "name": "Broughton", "address": "Broughton Shopping Park, Chester Road, Flintshire, Broughton, CH4 0DE", "latitude": 53.167425, "longitude": -2.974736, "link": "https://www.cineworld.co.uk/cinemas/broughton", "google_place_id": "ChIJRTYgqqfEekgRU74iWTbdJXw"}, {"id": 18, "chain": "cineworld", "name": "Burton On Trent", "address": "Middle Way Park, Guild Street, Burton upon Trent, DE14 1NQ", "latitude": 52.80508, "longitude": -1.631554, "link": "https://www.cineworld.co.uk/cinemas/burton-upon-trent", "google_place_id": "ChIJiYmAw0UCekgR60fW4ti8Vcc"}, {"id": 19, "chain": "cineworld", "name": "Bury St Edmunds", "address": "Park Way, Bury St Edmunds, IP33 3BA", "latitude": 52.245362, "longitude": 0.706271, "link": "https://www.cineworld.co.uk/cinemas/bury-st-edmunds", "google_place_id": "ChIJF-Ng7UNM2EcRYl5MqgffFRk"}, {"id": 20, "chain": "cineworld", "name": "Cardiff", "address": "Mary Ann Street, Cardiff, CF10 2EN", "latitude": 51.478909, "longitude": -3.173021, "link": "https://www.cineworld.co.uk/cinemas/cardiff", "google_place_id": "ChIJnYEo87YcbkgRjwSUBv-bkoE"}, {"id": 21, "chain": "cineworld", "name": "Castleford", "address": "Xscape, Colorado Way, Castleford, WF10 4TA", "latitude": 53.71003, "longitude": -1.341387, "link": "https://www.cineworld.co.uk/cinemas/castleford", "google_place_id": "ChIJsSsj9_RpeUgRvn4dXV77m58"}, {"id": 22, "chain": "cineworld", "name": "Cheltenham", "address": "The Brewery Quarter, Henrietta Street, Cheltenham, GL50 4FA", "latitude": 51.903089, "longitude": -2.075964, "link": "https://www.cineworld.co.uk/cinemas/cheltenham", "google_place_id": "ChIJxQWEpZAbcUgRlGXyf6drjBI"}, {"id": 23, "chain": "cineworld", "name": "Chesterfield", "address": "Alma Leisure Park, Derby Road, Chesterfield, S40 2ED", "latitude": 53.228379, "longitude": -1.422506, "link": "https://www.cineworld.co.uk/cinemas/chesterfield", "google_place_id": "ChIJgYXBKEqFeUgRAeGumTtZFcg"}, {"id": 24, "chain": "cineworld", "name": "Chichester", "address": "Chichester Gate, Chichester, PO19 8EL", "latitude": 50.83042, "longitude": -0.785544, "link": "https://www.cineworld.co.uk/cinemas/chichester", "google_place_id": "ChIJAwZ7hmJSdEgR6jhpOYjaqLE"}, {"id": 25, "chain": "cineworld", "name": "Crawley", "address": "Crawley Leisure Park, London Road, Crawley, RH10 8LR", "latitude": 51.120773, "longitude": -0.189548, "link": "https://www.cineworld.co.uk/cinemas/crawley", "google_place_id": "ChIJxZ1OAirudUgRMAHIqYq8YSI"}, {"id": 26, "chain": "cineworld", "name": "Dalton Park", "address": "Dalton Park, County Durham, Murton, SR7 9HU", "latitude": 54.814072, "longitude": -1.377031, "link": "https://www.cineworld.co.uk/cinemas/dalton-park", "google_place_id": "ChIJOQ1xDZthfkgR7O47rVZwjUw"}, {"id": 27, "chain": "cineworld", "name": "Didcot", "address": "27 Station Road, Didcot, OX11 7NE", "latitude": 51.607256, "longitude": -1.240343, "link": "https://www.cineworld.co.uk/cinemas/didcot", "google_place_id": "ChIJ50vEs0y5dkgRvFKtFyl9rB4"}, {"id": 28, "chain": "cineworld", "name": "Didsbury", "address": "Parrs Wood Entertainment Centre, Wilmslow Road, Manchester, M20 5PG", "latitude": 53.409741, "longitude": -2.219233, "link": "https://www.cineworld.co.uk/cinemas/didsbury", "google_place_id": "ChIJG06wR16ye0gRv_3vVi3Kvcs"}, {"id": 29, "chain": "cineworld", "name": "Dover", "address": "Unit 1, Dover St James, St James Street, Dover, CT16 1QD", "latitude": 51.125846, "longitude": 1.316125, "link": "https://www.cineworld.co.uk/cinemas/dover", "google_place_id": "ChIJd2ClXNSk3kcRDTDpuedFEU4"}, {"id": 30, "chain": "cineworld", "name": "Dundee", "address": "Camperdown Leisure Park, Kingsway West, Dundee, DD2 4TF", "latitude": 56.481649, "longitude": -3.023559, "link": "https://www.cineworld.co.uk/cinemas/dundee", "google_place_id": "ChIJRWNfTR5DhkgR1NiHT6C8h6U"}, {"id": 31, "chain": "cineworld", "name": "Eastbourne Central", "address": "The Beacon, Terminus Road, Eastbourne, BN21 3NW", "latitude": 50.768917, "longitude": 0.282799, "link": "https://www.cineworld.co.uk/cinemas/eastbourne-at-the-beacon", "google_place_id": "ChIJm8sxvAdz30cRPqX7o7ukRD0"}, {"id": 32, "chain": "cineworld", "name": "Edinburgh", "address": "Fountain Park, 130/3 Dundee Street, Edinburgh, EH11 1AF", "latitude": 55.941349, "longitude": -3.218034, "link": "https://www.cineworld.co.uk/cinemas/edinburgh", "google_place_id": "ChIJXz7u36fHh0gR9jjCzXnAx8E"}, {"id": 33, "chain": "cineworld", "name": "Ely", "address": "Ely Leisure Village, Downham Road, Ely, CB6 2WH", "latitude": 52.410325, "longitude": 0.251258, "link": "https://www.cineworld.co.uk/cinemas/ely", "google_place_id": "ChIJJcQh6K4T2EcRKto7bY8WY84"}, {"id": 34, "chain": "cineworld", "name": "Falkirk", "address": "Central Retail Park, Old Bison Works, Falkirk, FK1 1LW", "latitude": 56.002901, "longitude": -3.777022, "link": "https://www.cineworld.co.uk/cinemas/falkirk", "google_place_id": "ChIJJ6y3-S96iEgRaS2NUeIgB4A"}, {"id": 35, "chain": "cineworld", "name": "Glasgow Parkhead", "address": "Forge Shopping Centre, 1221 Gallowgate, Glasgow, G31 4EB", "latitude": 55.852775, "longitude": -4.200839, "link": "https://www.cineworld.co.uk/cinemas/glasgow-parkhead", "google_place_id": "ChIJ8Z-HBFBBiEgR7u_RrBbpo_8"}, {"id": 36, "chain": "cineworld", "name": "Glasgow Renfrew Street", "address": "7 Renfrew Street, Glasgow, G2 3AB", "latitude": 55.865025, "longitude": -4.254427, "link": "https://www.cineworld.co.uk/cinemas/glasgow-renfrew-street", "google_place_id": "ChIJ2abQECZEiEgRBwy30iZwok0"}, {"id": 37, "chain": "cineworld", "name": "Glasgow Silverburn", "address": "Silverburn Shopping Centre, 763 Barrhead Road, Glasgow, G53 6AG", "latitude": 55.823121, "longitude": -4.342844, "link": "https://www.cineworld.co.uk/cinemas/glasgow-silverburn", "google_place_id": "ChIJXXZciYRIiEgRYIRJTkGXizg"}, {"id": 38, "chain": "cineworld", "name": "Gloucester Quays", "address": "Gloucester Quays Outlet Centre, Merchants Road, Gloucester, GL1 5SH", "latitude": 51.860522, "longitude": -2.253158, "link": "https://www.cineworld.co.uk/cinemas/gloucester-quays", "google_place_id": "ChIJEXXEU2kGcUgRHviuku5kGsA"}, {"id": 39, "chain": "cineworld", "name": "Harlow Harvey Centre", "address": "Harvey Shopping Centre, Harlow, CM20 1XR", "latitude": 51.769084, "longitude": 0.091294, "link": "https://www.cineworld.co.uk/cinemas/harlow-harvey-centre", "google_place_id": "ChIJaxgTawCc2EcR_JEUQEPNh4s"}, {"id": 40, "chain": "cineworld", "name": "Harlow", "address": "Edinburgh Way, Harlow, CM20 2DA", "latitude": 51.784633, "longitude": 0.109359, "link": "https://www.cineworld.co.uk/cinemas/harlow-queensgate", "google_place_id": "ChIJl63P4O2b2EcRZU27vfMSsas"}, {"id": 41, "chain": "cineworld", "name": "Haverhill", "address": "Ehringshausen Way, Haverhill, CB9 0ER", "latitude": 52.081579, "longitude": 0.443247, "link": "https://www.cineworld.co.uk/cinemas/haverhill", "google_place_id": "ChIJ73LUUfNe2EcRTCVPz5GCQw8"}, {"id": 42, "chain": "cineworld", "name": "Hemel Hempstead", "address": "Jarman Square, Formerly Leisure World, Jarman Park, Hemel Hempstead, HP2 4JW", "latitude": 51.748047, "longitude": -0.454791, "link": "https://www.cineworld.co.uk/cinemas/hemel-hempstead", "google_place_id": "ChIJi5Reu0FBdkgR2ngFqx8s9SU"}, {"id": 43, "chain": "cineworld", "name": "High Wycombe", "address": "Denmark Street, Eden, High Wycombe, HP11 2DB", "latitude": 51.631197, "longitude": -0.755657, "link": "https://www.cineworld.co.uk/cinemas/high-wycombe", "google_place_id": "ChIJE79VAtdhdkgRaJBRaRvUyhE"}, {"id": 44, "chain": "cineworld", "name": "Hinckley", "address": "The Crescent, Station Road, Hinckley, LE10 1AW", "latitude": 52.539019, "longitude": -1.373676, "link": "https://www.cineworld.co.uk/cinemas/hinckley", "google_place_id": "ChIJU_3-eqRad0gR1dKc9MOQxes"}, {"id": 45, "chain": "cineworld", "name": "Hull", "address": "Kingswood Retail Park, Gibraltar Road, Hull, HU7 3DB", "latitude": 53.791368, "longitude": -0.353458, "link": "https://www.cineworld.co.uk/cinemas/hull", "google_place_id": "ChIJx929QeS-eEgRxrAdNYMNBCk"}, {"id": 46, "chain": "cineworld", "name": "Huntingdon", "address": "Tower Field Park, Abbots Ripton Road, Huntingdon, PE29 7EG", "latitude": 52.350847, "longitude": -0.179686, "link": "https://www.cineworld.co.uk/cinemas/huntingdon", "google_place_id": "ChIJo-zFr1rdd0gRMMR7vNn7x84"}, {"id": 47, "chain": "cineworld", "name": "Ipswich", "address": "Cardinal Park, 11 Grafton Way, Ipswich, IP1 1AX", "latitude": 52.053476, "longitude": 1.149738, "link": "https://www.cineworld.co.uk/cinemas/ipswich", "google_place_id": "ChIJExxmjSqOYEgRyExSK5jKxY0"}, {"id": 48, "chain": "cineworld", "name": "Jersey", "address": "Waterfront Centre, La Rue de L'Etau\u00a0, St Helier, JE2 4HE", "latitude": 49.183851, "longitude": -2.11437, "link": "https://www.cineworld.co.uk/cinemas/jersey", "google_place_id": "ChIJ6SKC2alSDEgR7gQGQobEzKE"}, {"id": 49, "chain": "cineworld", "name": "Leeds", "address": "White Rose Shopping Centre, Dewsbury Road, Leeds, LS11 8LU", "latitude": 53.758621, "longitude": -1.575713, "link": "https://www.cineworld.co.uk/cinemas/leeds-white-rose", "google_place_id": "ChIJVVWuNv5peUgRPSoCQJsL59A"}, {"id": 50, "chain": "cineworld", "name": "Leigh", "address": "The Loom, Spinning Jenny Way, Leigh, WN7 4PE", "latitude": 53.493211, "longitude": -2.51432, "link": "https://www.cineworld.co.uk/cinemas/leigh", "google_place_id": "ChIJ_fQG5qcHe0gRZ0Rm0abxzPI"}, {"id": 51, "chain": "cineworld", "name": "Llandudno", "address": "Junction Way Leisure Park, Llandudno Junction, LL31 9XX", "latitude": 53.282269, "longitude": -3.80844, "link": "https://www.cineworld.co.uk/cinemas/llandudno", "google_place_id": "ChIJtWEVkfQeZUgRn8RF62E2A8Q"}, {"id": 52, "chain": "cineworld", "name": "Bexley Heath", "address": "28-70 Broadway, Bexleyheath, London, DA6 7LL", "latitude": 51.456097, "longitude": 0.149899, "link": "https://www.cineworld.co.uk/cinemas/london-bexleyheath", "google_place_id": "ChIJqSFp4PG2d0gRpFOIH_n8llw"}, {"id": 53, "chain": "cineworld", "name": "Enfield", "address": "Southbury Leisure Centre, 208 Southbury Road, Enfield, London, EN1 1YQ", "latitude": 51.650185, "longitude": -0.060884, "link": "https://www.cineworld.co.uk/cinemas/london-enfield", "google_place_id": "ChIJS2BJ9RkfdkgRFE4g19QFjLU"}, {"id": 54, "chain": "cineworld", "name": "Feltham", "address": "Leisure West, Air Park Way, Feltham, London, TW13 7LX", "latitude": 51.443789, "longitude": -0.404476, "link": "https://www.cineworld.co.uk/cinemas/london-feltham", "google_place_id": "ChIJOaGAL2lzdkgRQ9RcOKQv1BI"}, {"id": 55, "chain": "cineworld", "name": "Ilford", "address": "I-Scene, Clements Road, Ilford, London, IG1 1BP", "latitude": 51.557636, "longitude": 0.074141, "link": "https://www.cineworld.co.uk/cinemas/london-ilford", "google_place_id": "ChIJJ3Ggeoqm2EcRVDNLAmCsZZI"}, {"id": 56, "chain": "cineworld", "name": "Leicester Square", "address": "5-6 Leicester Square, London, WC2H 7NA", "latitude": 51.510811, "longitude": -0.130465, "link": "https://www.cineworld.co.uk/cinemas/london-leicester-square", "google_place_id": "ChIJw-wvFdIEdkgRv3GdODKiXOo"}, {"id": 57, "chain": "cineworld", "name": "South Ruislip", "address": "The Old Dairy, Victoria Road, Ruislip, HA4 0EU", "latitude": 51.558682, "longitude": -0.400283, "link": "https://www.cineworld.co.uk/cinemas/london-south-ruislip", "google_place_id": "ChIJ52Vazt9sdkgRildkNJ8USBg"}, {"id": 58, "chain": "cineworld", "name": "The O2", "address": "The O2, Peninsula Square, London, SE10 0DX", "latitude": 51.503192, "longitude": 0.004472, "link": "https://www.cineworld.co.uk/cinemas/london-the-o2-greenwich", "google_place_id": "ChIJq6qqyh2o2EcRc6Bs3k9PyrM"}, {"id": 59, "chain": "cineworld", "name": "Wandsworth", "address": "Southside Shopping Centre, Wandsworth High Street, London, SW18 4TF", "latitude": 51.454021, "longitude": -0.193428, "link": "https://www.cineworld.co.uk/cinemas/london-wandsworth", "google_place_id": "ChIJb9rJqmYPdkgR4lHkRulOWrI"}, {"id": 60, "chain": "cineworld", "name": "Wembley", "address": "London Designer Outlet, Wembley Park Boulevard, London, HA9 0FD", "latitude": 51.556579, "longitude": -0.28391, "link": "https://www.cineworld.co.uk/cinemas/london-wembley", "google_place_id": "ChIJXYL5sSoSdkgRzdqGhoi4h9g"}, {"id": 61, "chain": "cineworld", "name": "West India Quay", "address": "Hertsmere Road, West India Quay, London, E14 4AL", "latitude": 51.507864, "longitude": -0.022363, "link": "https://www.cineworld.co.uk/cinemas/london-west-india-quay", "google_place_id": "ChIJITdUsMcCdkgREaY2Svc0RJ8"}, {"id": 62, "chain": "cineworld", "name": "Wood Green", "address": "The Mall Wood Green, High Road, London, N22 6LU", "latitude": 51.594363, "longitude": -0.108076, "link": "https://www.cineworld.co.uk/cinemas/london-wood-green", "google_place_id": "ChIJKUxwkP0bdkgRR7Ky_2MS6jE"}, {"id": 63, "chain": "cineworld", "name": "Loughborough", "address": "Baxter Gate, Loughborough, LE11 1TH", "latitude": 52.772166, "longitude": -1.203555, "link": "https://www.cineworld.co.uk/cinemas/loughborough", "google_place_id": "ChIJnVYQ46_geUgRf8hhz0vPNik"}, {"id": 64, "chain": "cineworld", "name": "Luton", "address": "The Galaxy, Bridge Street, Luton, LU1 2NB", "latitude": 51.88189, "longitude": -0.417884, "link": "https://www.cineworld.co.uk/cinemas/luton", "google_place_id": "ChIJg5BrNUVIdkgRljeR-Uo1MYg"}, {"id": 65, "chain": "cineworld", "name": "Middlesbrough", "address": "Middlesbrough Leisure Park, Marton Road, Middlesbrough, TS1 2DY", "latitude": 54.57619, "longitude": -1.228112, "link": "https://www.cineworld.co.uk/cinemas/middlesbrough", "google_place_id": "ChIJo0mHTf7sfkgRUtqaa3TTrSA"}, {"id": 66, "chain": "cineworld", "name": "Milton Keynes", "address": "Xscape, 602 Marlborough Gate, Milton Keynes, MK9 3XZ", "latitude": 52.041198, "longitude": -0.749113, "link": "https://www.cineworld.co.uk/cinemas/milton-keynes", "google_place_id": "ChIJ_1VTvJSqd0gRuRRhXebNebM"}, {"id": 67, "chain": "cineworld", "name": "Newcastle", "address": "The Gate, Newgate Street, Newcastle upon Tyne, NE1 5TG", "latitude": 54.9724, "longitude": -1.618027, "link": "https://www.cineworld.co.uk/cinemas/newcastle-upon-tyne", "google_place_id": "ChIJIe9VncpwfkgRAHJegJ_Y06Q"}, {"id": 68, "chain": "cineworld", "name": "Isle Of Wight", "address": "Coppins Bridge, Newport, Isle of Wight, PO30 2TA", "latitude": 50.699114, "longitude": -1.289387, "link": "https://www.cineworld.co.uk/cinemas/newport-isle-of-wight", "google_place_id": "ChIJSfIyyc1idEgR7w0HCeIWFo4"}, {"id": 69, "chain": "cineworld", "name": "Newport", "address": "Newport Retail Park, Spytty Road, Newport, NP19 4QQ", "latitude": 51.573952, "longitude": -2.942637, "link": "https://www.cineworld.co.uk/cinemas/newport-spytty-park", "google_place_id": "ChIJJ0Ax-o7mcUgRvp4WqBcI9lM"}, {"id": 70, "chain": "cineworld", "name": "Northampton", "address": "Sixfields Leisure, Weedon Road, Northampton, NN5 5QJ", "latitude": 52.236766, "longitude": -0.936654, "link": "https://www.cineworld.co.uk/cinemas/northampton", "google_place_id": "ChIJj3woYvcOd0gRJrYUVAcOCGQ"}, {"id": 71, "chain": "cineworld", "name": "Nottingham", "address": "The Corner House, 29 Forman Street, Nottingham, NG1 4AA", "latitude": 52.955512, "longitude": -1.150706, "link": "https://www.cineworld.co.uk/cinemas/nottingham", "google_place_id": "ChIJ8_0jHIDBeUgRsTUOFIkshYY"}, {"id": 72, "chain": "cineworld", "name": "Plymouth", "address": "Unit 17, 11 Bretonside, Plymouth, PL4 0FE", "latitude": 50.370763, "longitude": -4.136547, "link": "https://www.cineworld.co.uk/cinemas/plymouth", "google_place_id": "ChIJkZh86A3tbEgRP72D5FaeFbo"}, {"id": 73, "chain": "cineworld", "name": "Poole", "address": "Tower Park, Poole, BH12 4NY", "latitude": 50.745758, "longitude": -1.952306, "link": "https://www.cineworld.co.uk/cinemas/poole", "google_place_id": "ChIJ-4RFA_6jc0gRIcgY_7_8D5g"}, {"id": 74, "chain": "cineworld", "name": "Rochester", "address": "Medway Valley Leisure Park, Chariot Way, Rochester, ME2 2SS", "latitude": 51.379595, "longitude": 0.47482, "link": "https://www.cineworld.co.uk/cinemas/rochester", "google_place_id": "ChIJEZnLjoTM2EcR4_9dwm8j5EM"}, {"id": 75, "chain": "cineworld", "name": "Rugby", "address": "Junction One, Leicester Road, Rugby, CV21 1RW", "latitude": 52.385492, "longitude": -1.256888, "link": "https://www.cineworld.co.uk/cinemas/rugby", "google_place_id": "ChIJhyUN4MRAd0gR8RdyUeP1L2Q"}, {"id": 77, "chain": "cineworld", "name": "Rushden Lakes", "address": "Unit 16, Northampton Road, West Terrace, Rushden Lakes, Rushden, NN10 6FA", "latitude": 52.300291, "longitude": -0.629181, "link": "https://www.cineworld.co.uk/cinemas/rushden-lakes", "google_place_id": "ChIJz_8hLQqjd0gRp2mUghmzlHo"}, {"id": 78, "chain": "cineworld", "name": "Sheffield", "address": "Valley Centertainment, Broughton Lane, Sheffield, S9 2EP", "latitude": 53.402592, "longitude": -1.413918, "link": "https://www.cineworld.co.uk/cinemas/sheffield", "google_place_id": "ChIJJ96Kj_J3eUgRszFR0wuQ-PI"}, {"id": 79, "chain": "cineworld", "name": "Shrewsbury", "address": "Old Potts Way, Shrewsbury, SY3 7ET", "latitude": 52.703076, "longitude": -2.739373, "link": "https://www.cineworld.co.uk/cinemas/shrewsbury", "google_place_id": "ChIJ__Jja2ieekgRUA37ED9tCLA"}, {"id": 80, "chain": "cineworld", "name": "Solihull", "address": "47 Upper Jubilee Walk, Touchwood, Solihull, B91 3QW", "latitude": 52.411913, "longitude": -1.778917, "link": "https://www.cineworld.co.uk/cinemas/solihull", "google_place_id": "ChIJA0V2huC5cEgRMA0TadLjXI8"}, {"id": 81, "chain": "cineworld", "name": "Speke", "address": "New Mersey Shopping Park, Speke Road, Speke, Merseyside, L24 8QB", "latitude": 53.349279, "longitude": -2.880486, "link": "https://www.cineworld.co.uk/cinemas/speke", "google_place_id": "ChIJ_6XNVLche0gRmy6BRoPUo4U"}, {"id": 82, "chain": "cineworld", "name": "Stevenage", "address": "Stevenage Leisure Park, Kings Way, Stevenage, SG1 2UA", "latitude": 51.900195, "longitude": -0.209763, "link": "https://www.cineworld.co.uk/cinemas/stevenage", "google_place_id": "ChIJbfElVckxdkgRZH2A-SLg9dM"}, {"id": 83, "chain": "cineworld", "name": "St Helens", "address": "Chalon Way West, St Helens, WA10 1BF", "latitude": 53.45154, "longitude": -2.741024, "link": "https://www.cineworld.co.uk/cinemas/st-helens", "google_place_id": "ChIJVSBBKYIbe0gR-fADEHPgSDw"}, {"id": 84, "chain": "cineworld", "name": "St Neots", "address": "The Rowley Arts Centre, Huntingdon Street, St Neots, PE19 1BH", "latitude": 52.2289, "longitude": -0.26426, "link": "https://www.cineworld.co.uk/cinemas/st-neots", "google_place_id": "ChIJFWAF6bXFd0gRRDU3Q0bGF9g"}, {"id": 85, "chain": "cineworld", "name": "Stoke On Trent", "address": "Quadrant Road, City Centre, Stoke-on-Trent, ST1 1PS", "latitude": 53.029216, "longitude": -2.176559, "link": "https://www.cineworld.co.uk/cinemas/stoke-on-trent", "google_place_id": "ChIJNcB6YYBCekgRj3JQ4ZgLSP0"}, {"id": 86, "chain": "cineworld", "name": "Swindon Regent Circus", "address": "Victoria Road, Swindon, SN1 1FA", "latitude": 51.557689, "longitude": -1.780819, "link": "https://www.cineworld.co.uk/cinemas/swindon-regent-circus", "google_place_id": "ChIJVcw_EE9EcUgRtM8C11QnGIc"}, {"id": 87, "chain": "cineworld", "name": "Swindon", "address": "Shaw Ridge Leisure Park, Whitehill Way, Swindon, SN5 7DN", "latitude": 51.560712, "longitude": -1.831655, "link": "https://www.cineworld.co.uk/cinemas/swindon-shaw-ridge", "google_place_id": "ChIJu9VbeJJDcUgRJT1-WxML5Qk"}, {"id": 88, "chain": "cineworld", "name": "Telford", "address": "Southwater Square, Telford, TF3 4HS", "latitude": 52.673789, "longitude": -2.448289, "link": "https://www.cineworld.co.uk/cinemas/telford", "google_place_id": "ChIJJTD07YZ_cEgR4ivprf8TR6E"}, {"id": 89, "chain": "cineworld", "name": "Wakefield", "address": "Westgate Leisure Park, Colinsway, Wakefield, WF2 9SH", "latitude": 53.67705, "longitude": -1.505806, "link": "https://www.cineworld.co.uk/cinemas/wakefield", "google_place_id": "ChIJ595WyORmeUgRHYpwxbUZZwU"}, {"id": 90, "chain": "cineworld", "name": "Warrington", "address": "Time Square, Warrington, WA1 2HN", "latitude": 53.388269, "longitude": -2.590868, "link": "https://www.cineworld.co.uk/cinemas/warrington", "google_place_id": "ChIJGVn-DzwCe0gRp2i9-uO0j58"}, {"id": 91, "chain": "cineworld", "name": "Watford", "address": "intu Charter Place Shopping Centre, Queens Road, Watford, WD17 2UB", "latitude": 51.656065, "longitude": -0.396428, "link": "https://www.cineworld.co.uk/cinemas/watford", "google_place_id": "ChIJG0BN4PdrdkgRsFEqc0Da9Tc"}, {"id": 92, "chain": "cineworld", "name": "Weston Supermare", "address": "7 Central Walk, Dolphin Square, Weston-super-Mare, BS23 1FF", "latitude": 51.345591, "longitude": -2.978611, "link": "https://www.cineworld.co.uk/cinemas/weston-super-mare", "google_place_id": "ChIJQWr5Y9P4cUgRBUps54o3azY"}, {"id": 93, "chain": "cineworld", "name": "Weymouth", "address": "New Bond Street, Weymouth, DT4 8LY", "latitude": 50.609721, "longitude": -2.455664, "link": "https://www.cineworld.co.uk/cinemas/weymouth", "google_place_id": "ChIJgZF2sAn3ckgR5dKHOWUmw2M"}, {"id": 94, "chain": "cineworld", "name": "Whiteley", "address": "Whiteley Shopping Centre, Whiteley Way, Fareham, PO15 7PD", "latitude": 50.886198, "longitude": -1.248196, "link": "https://www.cineworld.co.uk/cinemas/whiteley", "google_place_id": "ChIJudKeI09EcUgR6IEk13O6QQM"}, {"id": 95, "chain": "cineworld", "name": "Witney", "address": "Marriots Walk, Witney, OX28 6GW", "latitude": 51.78803, "longitude": -1.486158, "link": "https://www.cineworld.co.uk/cinemas/witney", "google_place_id": "ChIJveuaZVnMdkgR66Bj9fGANLY"}, {"id": 96, "chain": "cineworld", "name": "Wolverhampton", "address": "Bentley Bridge Park, Wednesfield Way, Wolverhampton, WV11 1TZ", "latitude": 52.596225, "longitude": -2.092675, "link": "https://www.cineworld.co.uk/cinemas/wolverhampton", "google_place_id": "ChIJK3TutP-bcEgR5CnbgOoVWBk"}, {"id": 97, "chain": "cineworld", "name": "Yate", "address": "Riverside, Link Road, Yate, BS37 4FT", "latitude": 51.539108, "longitude": -2.40845, "link": "https://www.cineworld.co.uk/cinemas/yate", "google_place_id": "ChIJQf-S34abcUgRrsHTUfU75yI"}, {"id": 98, "chain": "cineworld", "name": "Yeovil", "address": "Yeo Leisure Park, Old Station Way, Yeovil, BA20 1NP", "latitude": 50.940436, "longitude": -2.625693, "link": "https://www.cineworld.co.uk/cinemas/yeovil", "google_place_id": "ChIJYzKrOctBckgR7QrBWJVhTvU"}, {"id": 99, "chain": "cineworld", "name": "York", "address": "York Community Stadium, Kathryn Avenue, Huntington, York, YO32 9AF", "latitude": 53.983486, "longitude": -1.05233, "link": "https://www.cineworld.co.uk/cinemas/york", "google_place_id": "ChIJayjM7_AxeUgRE31W1ADxxaE"}, {"id": 315, "chain": "cineworld", "name": "Belfast", "address": "2 Queens Quay, Odyssey Pavilion, Belfast, BT3 9QQ", "latitude": 54.604088, "longitude": -5.91618, "link": "https://www.cineworld.co.uk/cinemas/belfast", "google_place_id": "ChIJJS2N6ZEJYUgR3iHf_jBK0xs"}, {"id": 316, "chain": "showcase", "name": "Cinema de Lux Bluewater", "address": "Plaza, Bluewater, Greenhithe, Kent, DA9 9SG", "latitude": 51.437121, "longitude": 0.27013, "link": "https://www.showcasecinemas.co.uk/cinema-info/showcase-cinema-de-lux-bluewater", "google_place_id": "ChIJtcoH7VCx2EcRLy8GkDCM6eY"}, {"id": 318, "chain": "showcase", "name": "Cinema de Lux Coventry", "address": "Gielgud Way, Walsgrave, Coventry, CV2 2SZ", "latitude": 52.435697, "longitude": -1.430369, "link": "https://www.showcasecinemas.co.uk/cinema-info/showcase-cinema-de-lux-coventry", "google_place_id": "ChIJhaF5SypJd0gRjOTiYpets30"}, {"id": 319, "chain": "showcase", "name": "Cinema de Lux Derby", "address": "Level 3 West Mall, Derbion, Derby, DE1 2PQ", "latitude": 52.919631, "longitude": -1.473556, "link": "https://www.showcasecinemas.co.uk/cinema-info/showcase-cinema-de-lux-derby", "google_place_id": "ChIJvYu4XRfxeUgRfDpG_gyTHLs"}, {"id": 320, "chain": "showcase", "name": "Cinema de Lux Glasgow", "address": "Barrbridge Leisure Centre, Baillieston, Glasgow, Scotland, G69 7TZ", "latitude": 55.847493, "longitude": -4.062734, "link": "https://www.showcasecinemas.co.uk/cinema-info/showcase-cinema-de-lux-glasgow", "google_place_id": "ChIJeSG3TT9qiEgRLfbFxcuwPeI"}, {"id": 321, "chain": "showcase", "name": "Cinema de Lux Leeds", "address": "Gelderd Road, Batley, West Yorkshire, WF17 9TB", "latitude": 53.743786, "longitude": -1.640433, "link": "https://www.showcasecinemas.co.uk/cinema-info/showcase-cinema-de-lux-leeds", "google_place_id": "ChIJ8xTqYPZfeUgR5u2Az5XT_2s"}, {"id": 322, "chain": "showcase", "name": "Cinema de Lux Leicester", "address": "7 Highcross Lane, Leicester, LE1 4SD", "latitude": 52.636672, "longitude": -1.138856, "link": "https://www.showcasecinemas.co.uk/cinema-info/showcase-cinema-de-lux-leicester", "google_place_id": "ChIJpy3Am-Fgd0gRUSDjjw3atxg"}, {"id": 323, "chain": "showcase", "name": "Cinema de Lux Liverpool", "address": "340 East Lancashire Road, Norris Green, Liverpool, L11 9YJ", "latitude": 53.456819, "longitude": -2.913634, "link": "https://www.showcasecinemas.co.uk/cinema-info/showcase-cinema-de-lux-liverpool", "google_place_id": "ChIJtQRPSREie0gRKZPYVluqf6c"}, {"id": 324, "chain": "showcase", "name": "Cinema de Lux Nottingham", "address": "Redfield Way, Lenton, Nottingham, NG7 2UW", "latitude": 52.936674, "longitude": -1.175332, "link": "https://www.showcasecinemas.co.uk/cinema-info/showcase-cinema-de-lux-nottingham", "google_place_id": "ChIJEZF5oxXCeUgRhQXBbLenCkw"}, {"id": 325, "chain": "showcase", "name": "Cinema de Lux Paisley", "address": "Griffen Avenue, Phoenix Business Park, Paisley, PA1 2BH", "latitude": 55.845382, "longitude": -4.47534, "link": "https://www.showcasecinemas.co.uk/cinema-info/showcase-cinema-de-lux-paisley", "google_place_id": "ChIJx0D68_BLiEgRciwVCh8OCck"}, {"id": 326, "chain": "showcase", "name": "Cinema de Lux Peterborough", "address": "Mallory Road, Boon Gate, Peterborough, PE1 5AU", "latitude": 52.574167, "longitude": -0.223333, "link": "https://www.showcasecinemas.co.uk/cinema-info/showcase-cinema-de-lux-peterborough", "google_place_id": "ChIJCVYbYPXwd0gRImsneebXcac"}, {"id": 327, "chain": "showcase", "name": "Cinema de Lux Reading", "address": "Loddon Bridge, Reading Road, Winnersh, Wokingham, Berkshire, RG41 5HG", "latitude": 51.437571, "longitude": -0.898052, "link": "https://www.showcasecinemas.co.uk/cinema-info/showcase-cinema-de-lux-reading", "google_place_id": "ChIJLRRtAPWDdkgRCjKl-ctd2PQ"}, {"id": 328, "chain": "showcase", "name": "Cinema de Lux Southampton", "address": "Level 4, Westquay South, Southampton, Hampshire, SO15 1DE", "latitude": 50.902115, "longitude": -1.407317, "link": "https://www.showcasecinemas.co.uk/cinema-info/showcase-cinema-de-lux-southampton", "google_place_id": "ChIJ4zUHC7d2dEgRzV-z7xNtOvU"}, {"id": 329, "chain": "showcase", "name": "Cinema de Lux Teesside", "address": "Aintree Oval, Teesside Leisure Park, Stockton-On-Tees, TS17 7BU", "latitude": 54.560878, "longitude": -1.272334, "link": "https://www.showcasecinemas.co.uk/cinema-info/showcase-cinema-de-lux-teesside", "google_place_id": "ChIJCZAaR9WSfkgRuOZ1YElpiWQ"}, {"id": 330, "chain": "showcase", "name": "Bristol Avonmeads", "address": "Avonmeads, St Philips Causeway, Bristol, BS2 0SP", "latitude": 51.449283, "longitude": -2.560983, "link": "https://www.showcasecinemas.co.uk/cinema-info/showcase-bristol-avonmeads", "google_place_id": "ChIJRwcmNViOcUgRrAD00_EFLyY"}, {"id": 331, "chain": "showcase", "name": "Cardiff Nantgarw", "address": "Heol-Yr-Odyn, Parc Nantgarw, Trefforest Industrial Estate, Nr Pontypridd, CF15 7QX", "latitude": 51.565555, "longitude": -3.274621, "link": "https://www.showcasecinemas.co.uk/cinema-info/showcase-cardiff-nantgarw", "google_place_id": "ChIJ0dPp940ZbkgR-b7FpzHLnkk"}, {"id": 332, "chain": "showcase", "name": "Dudley", "address": "Castlegate Way, Dudley, DY1 4TA", "latitude": 52.516914, "longitude": -2.070904, "link": "https://www.showcasecinemas.co.uk/cinema-info/showcase-dudley", "google_place_id": "ChIJ90jILP2ZcEgRWiaSxt_F2XU"}, {"id": 334, "chain": "everyman", "name": "Altrincham", "address": "74-78 George Street, Altrincham, WA14 1RF", "latitude": 53.386799, "longitude": -2.35078, "link": "https://www.everymancinema.com/altrincham", "google_place_id": "ChIJFwXSF2Wte0gRcJayA2MRwHY"}, {"id": 335, "chain": "everyman", "name": "Baker Street", "address": "96-98 Baker Street, London, W1U 6TJ", "latitude": 51.520519, "longitude": -0.15653, "link": "https://www.everymancinema.com/baker-street", "google_place_id": "ChIJJXNfoY4NdEgR5o9cDBrw_ro"}, {"id": 336, "chain": "everyman", "name": "Barnet", "address": "Great North Road, Barnet, London, EN5 1AB", "latitude": 51.646528, "longitude": -0.187731, "link": "https://www.everymancinema.com/barnet", "google_place_id": "ChIJD1FB9ykYdkgRl-V8hUv4lD0"}, {"id": 337, "chain": "everyman", "name": "Belsize Park", "address": "203 Haverstock Hill, Belsize Park, London, NW3 4QG", "latitude": 51.55082, "longitude": -0.165801, "link": "https://www.everymancinema.com/belsize-park", "google_place_id": "ChIJOSQX9ZAadkgRH63hPaxSSsg"}, {"id": 338, "chain": "everyman", "name": "Borough Yards", "address": "3 Dirty Lane, London, SE1 9PA", "latitude": 51.505529, "longitude": -0.092233, "link": "https://www.everymancinema.com/borough-yards", "google_place_id": "ChIJxRcXx8EDdkgREZjSNbsDocM"}, {"id": 339, "chain": "everyman", "name": "Bristol", "address": "44 Whiteladies Road, Bristol, BS8 2NH", "latitude": 51.463063, "longitude": -2.609262, "link": "https://www.everymancinema.com/bristol", "google_place_id": "ChIJCbqGzcKNcUgR1ly6DpknyYk"}, {"id": 340, "chain": "everyman", "name": "Broadgate", "address": "1 Finsbury Avenue, London, EC2M 2PF", "latitude": 51.519651, "longitude": -0.08461, "link": "https://www.everymancinema.com/broadgate", "google_place_id": "ChIJbz3yMIwddkgRLX3_vzqK8w8"}, {"id": 341, "chain": "everyman", "name": "Canary Wharf", "address": "Crossrail Place Level -2, Canary Wharf, London, London, E14 5AR", "latitude": 51.506167, "longitude": -0.018054, "link": "https://www.everymancinema.com/canary-wharf", "google_place_id": "ChIJ280AOrcCdkgRluiLKM1oBoo"}, {"id": 342, "chain": "everyman", "name": "Cardiff", "address": "Mermaid Quay, Cardiff, CF10 5BZ", "latitude": 51.46342, "longitude": -3.164419, "link": "https://www.everymancinema.com/cardiff", "google_place_id": "ChIJmV1DUZADbkgREreKmpurAlI"}, {"id": 343, "chain": "everyman", "name": "Chelmsford", "address": "131 Bond Street, Chelmsford, Chelmsford, CM1 1GD", "latitude": 51.734046, "longitude": 0.475822, "link": "https://www.everymancinema.com/chelmsford", "google_place_id": "ChIJFwW0UH3p2EcRAg6_Pzog10Y"}, {"id": 344, "chain": "everyman", "name": "Chelsea", "address": "279 King's Road, London, SW3 5EW", "latitude": 51.485419, "longitude": -0.173371, "link": "https://www.everymancinema.com/chelsea", "google_place_id": "ChIJeWPZhKUFdkgRXJizHA1C8_M"}, {"id": 345, "chain": "everyman", "name": "Clitheroe", "address": "Holmes Mill, Greenacre Street, Clitheroe, BB7 1EB", "latitude": 53.868243, "longitude": -2.393886, "link": "https://www.everymancinema.com/clitheroe", "google_place_id": "ChIJCeE2nOabe0gROJW5rz4KE74"}, {"id": 346, "chain": "everyman", "name": "Crystal Palace", "address": "25 Church Road, Crystal Palace, London , London , SE19 2TE", "latitude": 51.4191, "longitude": -0.079086, "link": "https://www.everymancinema.com/crystal-palace", "google_place_id": "ChIJz_IUYT8BdkgRIv6mpfuxyjY"}, {"id": 347, "chain": "everyman", "name": "Esher", "address": "22 High Street, Esher, Esher, KT10 9RT", "latitude": 51.370755, "longitude": -0.363945, "link": "https://www.everymancinema.com/esher", "google_place_id": "ChIJQaYikMgKdkgREYgwn4M8ABw"}, {"id": 348, "chain": "everyman", "name": "Gerrards Cross", "address": "Ethorpe Crescent, Gerrards Cross, SL9 8PN", "latitude": 51.588927, "longitude": -0.55322, "link": "https://www.everymancinema.com/gerrards-cross", "google_place_id": "ChIJ1xQ7oU9vdkgRYE8YtuieCBc"}, {"id": 349, "chain": "everyman", "name": "Glasgow", "address": "Unit 3 - 5, Princes Square, Buchanan Street, Glasgow, G1 3JN", "latitude": 55.859227, "longitude": -4.253709, "link": "https://www.everymancinema.com/glasgow", "google_place_id": "ChIJM0KxRT9HiEgR9MfSI2V0mmQ"}, {"id": 350, "chain": "everyman", "name": "Hampstead", "address": "5 Holly Bush Vale, Hampstead, London, London, NW3 6TX", "latitude": 51.556484, "longitude": -0.17907, "link": "https://www.everymancinema.com/hampstead", "google_place_id": "ChIJ47yhuYwadkgRkihmSUdmXQY"}, {"id": 351, "chain": "everyman", "name": "Harrogate", "address": "Westgate House, Station Parade, Harrogate, HG1 1HQ", "latitude": 53.991698, "longitude": -1.537898, "link": "https://www.everymancinema.com/harrogate", "google_place_id": "ChIJM2sd6-BTeUgRWm5eIHCzXbE"}, {"id": 352, "chain": "everyman", "name": "Horsham", "address": "16 Piries Place, Horsham, RH12 1EH", "latitude": 51.06261, "longitude": -0.326446, "link": "https://www.everymancinema.com/horsham", "google_place_id": "ChIJbYE0Hp_rdUgRr_s-nnetIkE"}, {"id": 353, "chain": "everyman", "name": "King's Cross", "address": "14-18 Handyside Street, King's Cross, London, N1C 4DN", "latitude": 51.537495, "longitude": -0.124008, "link": "https://www.everymancinema.com/kings-cross", "google_place_id": "ChIJj2COchYbdkgRVmLTn2uEOhc"}, {"id": 354, "chain": "everyman", "name": "Leeds", "address": "Level 4 Trinity, Albion Street, Leeds, LS1 5AY", "latitude": 53.796827, "longitude": -1.54402, "link": "https://www.everymancinema.com/leeds", "google_place_id": "ChIJExd3RRlceUgRtT1T2MIhoyk"}, {"id": 355, "chain": "everyman", "name": "Lincoln", "address": "Exchange Square, Sincil Street, Lincoln, LN5 7ET", "latitude": 53.227215, "longitude": -0.538984, "link": "https://www.everymancinema.com/lincoln", "google_place_id": "ChIJTz_ryepbeEgRTi5fNOAWn0Q"}, {"id": 356, "chain": "everyman", "name": "Liverpool", "address": "Metquarter, 35 Victoria Street, Liverpool, Liverpool, L1 6DA", "latitude": 53.407264, "longitude": -2.986299, "link": "https://www.everymancinema.com/liverpool", "google_place_id": "ChIJ46P6vfkhe0gR5wntHhlQY8w"}, {"id": 357, "chain": "everyman", "name": "Maida Vale", "address": "215 Sutherland Avenue, Maida Vale, London, London, W9 1RU", "latitude": 51.528028, "longitude": -0.181717, "link": "https://www.everymancinema.com/maida-vale", "google_place_id": "ChIJrU2Z1KUadkgRqFMP9XqZlFU"}, {"id": 358, "chain": "everyman", "name": "Mailbox Birmingham", "address": "116 Wharfside Street, The Mailbox, Birmingham, B1 1RF", "latitude": 52.475368, "longitude": -1.905318, "link": "https://www.everymancinema.com/mailbox-birmingham", "google_place_id": "ChIJ3eTIHYu8cEgRmSujRVLCufo"}, {"id": 359, "chain": "everyman", "name": "Manchester St. John's", "address": "ABC Buildings, 23 Quay Street, Manchester, M3 4AS", "latitude": 53.478639, "longitude": -2.252782, "link": "https://www.everymancinema.com/manchester-st-johns", "google_place_id": "ChIJgyX_xQuxe0gRcJP8eqS-ebs"}, {"id": 360, "chain": "everyman", "name": "Muswell Hill", "address": "Fortis Green Road, Muswell Hill, London, London, N10 3HP", "latitude": 51.58965, "longitude": -0.145917, "link": "https://www.everymancinema.com/muswell-hill", "google_place_id": "ChIJYRKJ2C0adkgRKmANnrItkBg"}, {"id": 361, "chain": "everyman", "name": "Newcastle", "address": "75-85 Grey Street, Newcastle, NE1 6EF", "latitude": 54.972663, "longitude": -1.61262, "link": "https://www.everymancinema.com/newcastle", "google_place_id": "ChIJbeV42bVxfkgRrOD9PovpWgc"}, {"id": 362, "chain": "everyman", "name": "Oxted", "address": "7 Station Road West, Oxted, Oxted, RH8 9EE", "latitude": 51.257363, "longitude": -0.006175, "link": "https://www.everymancinema.com/oxted", "google_place_id": "ChIJ47yhuYwadkgRadZ2Ep5sdW8"}, {"id": 363, "chain": "everyman", "name": "Reigate", "address": "Bancroft Road, Reigate, Reigate, RH2 7RP", "latitude": 51.236878, "longitude": -0.204075, "link": "https://www.everymancinema.com/reigate", "google_place_id": "ChIJJXNfoY4NdEgRgcNXI1MKrRU"}, {"id": 364, "chain": "everyman", "name": "Screen on the Green", "address": "83 Upper Street, Islington, London, London, N1 0NP", "latitude": 51.536868, "longitude": -0.103659, "link": "https://www.everymancinema.com/screen-on-the-green", "google_place_id": "ChIJgbmuj2cbdkgRfYOHSIlkrKg"}, {"id": 365, "chain": "everyman", "name": "Stratford-upon-Avon", "address": "Bell Court, Wood Street, Stratford-upon-Avon, Stratford-upon-Avon, CV37 6JW", "latitude": 52.192125, "longitude": -1.708554, "link": "https://www.everymancinema.com/stratford-upon-avon", "google_place_id": "ChIJt7i0rzPOcEgRfsfRl8JqW6o"}, {"id": 366, "chain": "everyman", "name": "Walton", "address": "85-89 High Street, Walton-on-Thames, London, KT12 1DN", "latitude": 51.3839, "longitude": -0.416691, "link": "https://www.everymancinema.com/walton", "google_place_id": "ChIJJXNfoY4NdEgRVNJiIw4tmgg"}, {"id": 367, "chain": "everyman", "name": "Winchester", "address": "Southgate Street, Winchester, SO23 9EG", "latitude": 51.060602, "longitude": -1.318713, "link": "https://www.everymancinema.com/winchester", "google_place_id": "ChIJg6p-mo4NdEgR14PA5ZvY0MA"}, {"id": 368, "chain": "everyman", "name": "Wokingham", "address": "Elms Walk, Wokingham, Wokingham, RG40 2FE", "latitude": 51.409325, "longitude": -0.836868, "link": "https://www.everymancinema.com/wokingham", "google_place_id": "ChIJXWSRDseBdkgR1HbWP-rynMM"}, {"id": 369, "chain": "everyman", "name": "York", "address": "Blossom Street, York, York, YO24 1AJ", "latitude": 53.954738, "longitude": -1.092891, "link": "https://www.everymancinema.com/york", "google_place_id": "ChIJB8ltswYxeUgRZIWJV_9rQDE"}, {"id": 484, "chain": "odeon_gb", "name": "Birmingham New Street", "address": "New Street, Birmingham, B2 4NU", "latitude": 52.47864, "longitude": -1.896432, "link": "https://www.odeon.co.uk/cinemas/birmingham-new-street", "google_place_id": "ChIJFSsbyo-8cEgRaiYVlHAxl_A"}, {"id": 485, "chain": "odeon_gb", "name": "Kilmarnock", "address": "Queens Drive, Kilmarnock, KA1 3XF", "latitude": 55.60231, "longitude": -4.491242, "link": "https://www.odeon.co.uk/cinemas/kilmarnock", "google_place_id": "ChIJ17uVjJAyiEgRc3W_JtBFEaI"}, {"id": 486, "chain": "odeon_gb", "name": "Coventry", "address": "Croft Road, Coventry, CV1 3AZ", "latitude": 52.40771, "longitude": -1.518571, "link": "https://www.odeon.co.uk/cinemas/coventry", "google_place_id": "ChIJwd0dKqRLd0gRKRw9ekGcQBs"}, {"id": 487, "chain": "odeon_gb", "name": "Dundee", "address": "Douglas Road, Dundee, DD4 7SN", "latitude": 56.480108, "longitude": -2.923674, "link": "https://www.odeon.co.uk/cinemas/dundee", "google_place_id": "ChIJjTpMrU5chkgRH_26Hjafabw"}, {"id": 488, "chain": "odeon_gb", "name": "Chatham", "address": "Leviathon Way, Chatham, ME4 4LL", "latitude": 51.400943, "longitude": 0.531329, "link": "https://www.odeon.co.uk/cinemas/chatham", "google_place_id": "ChIJqfuQr7vN2EcR-2wYfk_SAKk"}, {"id": 489, "chain": "odeon_gb", "name": "Exeter", "address": "Sidwell Street, Exeter, EX4 6PL", "latitude": 50.728611, "longitude": -3.522144, "link": "https://www.odeon.co.uk/cinemas/exeter", "google_place_id": "ChIJmVSTghWkbUgREAGWvYLQ72A"}, {"id": 490, "chain": "odeon_gb", "name": "South Woodford", "address": "60-64 High Road, Woodford, E18 2QL", "latitude": 51.594521, "longitude": 0.023019, "link": "https://www.odeon.co.uk/cinemas/south-woodford", "google_place_id": "ChIJXcOgBUqn2EcR84PBIuKi4_s"}, {"id": 491, "chain": "odeon_gb", "name": "Hastings", "address": "Queens Road, Hastings, TN34 1QP", "latitude": 50.85616, "longitude": 0.581127, "link": "https://www.odeon.co.uk/cinemas/hastings", "google_place_id": "ChIJvTkxJsca30cRhvRo6S2E63c"}, {"id": 492, "chain": "odeon_gb", "name": "Holloway", "address": "419-427 Holloway Road, Holloway, N7 6LJ", "latitude": 51.558617, "longitude": -0.121433, "link": "https://www.odeon.co.uk/cinemas/holloway", "google_place_id": "ChIJ76OV2qAbdkgRE_EBtGwU9vI"}, {"id": 494, "chain": "odeon_gb", "name": "London Leicester Square", "address": "24-26 Leicester Square, London, WC2H 7JY", "latitude": 51.510485, "longitude": -0.129325, "link": "https://www.odeon.co.uk/cinemas/london-leicester-square", "google_place_id": "ChIJIzMGlKkFdkgR8Vp-F_VHMB8"}, {"id": 495, "chain": "odeon_gb", "name": "London West End", "address": "38 Leicester Square, London, WC2H 7DX", "latitude": 51.5104, "longitude": -0.1293, "link": "https://www.odeon.co.uk/cinemas/london-west-end", "google_place_id": "ChIJ8xZFCNIEdkgRh6ulrAY"}, {"id": 496, "chain": "odeon_gb", "name": "London Haymarket", "address": "11-18 Panton Street, London, SW1Y 4DP", "latitude": 51.509557, "longitude": -0.131203, "link": "https://www.odeon.co.uk/cinemas/london-haymarket", "google_place_id": "ChIJt3Ycf9EEdkgRH3KOUQI1BdE"}, {"id": 497, "chain": "odeon_gb", "name": "Maidstone", "address": "Barker Road, Maidstone, ME16 8RG", "latitude": 51.269527, "longitude": 0.518457, "link": "https://www.odeon.co.uk/cinemas/maidstone", "google_place_id": "ChIJFYuxqS0y30cRBlzu-wnNIxY"}, {"id": 499, "chain": "odeon_gb", "name": "London Tottenham Court Road", "address": "30 Tottenham Court Road, London, W1T 1BX", "latitude": 51.518353, "longitude": -0.132428, "link": "https://www.odeon.co.uk/cinemas/london-tottenham-court-road", "google_place_id": "ChIJpy-n8ygbdkgRblRTJU1WiXA"}, {"id": 500, "chain": "odeon_gb", "name": "Sheffield", "address": "Arundel Gate, Sheffield, S1 1DL", "latitude": 53.380748, "longitude": -1.465177, "link": "https://www.odeon.co.uk/cinemas/sheffield", "google_place_id": "ChIJ--M0bHh4eUgRlmuNPCU4eI8"}, {"id": 502, "chain": "odeon_gb", "name": "Salisbury", "address": "New Canal, Salisbury, SP1 2AA", "latitude": 51.068387, "longitude": -1.794809, "link": "https://www.odeon.co.uk/cinemas/salisbury", "google_place_id": "ChIJ2VQDEfHrc0gRAv49oWLSFJc"}, {"id": 504, "chain": "odeon_gb", "name": "London Covent Garden", "address": "135 Shaftesbury Avenue, London, WC2H 8AH", "latitude": 51.514224, "longitude": -0.128237, "link": "https://www.odeon.co.uk/cinemas/london-covent-garden", "google_place_id": "ChIJYVBfT80EdkgREXX7UvbVt1I"}, {"id": 505, "chain": "odeon_gb", "name": "Nuneaton", "address": "St David's Way, Nuneaton, CV10 7SD", "latitude": 52.495613, "longitude": -1.478793, "link": "https://www.odeon.co.uk/cinemas/nuneaton", "google_place_id": "ChIJLemr8nVOd0gRR7MOJlZ26bM"}, {"id": 506, "chain": "odeon_gb", "name": "Worcester", "address": "Foregate Street, Worcester, WR1 1DX", "latitude": 52.195258, "longitude": -2.222447, "link": "https://www.odeon.co.uk/cinemas/worcester", "google_place_id": "ChIJfaZRP_LwcEgRScWpEqDCk8g"}, {"id": 507, "chain": "odeon_gb", "name": "Oxford George Street", "address": "George Street, Oxford, OX1 2BL", "latitude": 51.753716, "longitude": -1.261715, "link": "https://www.odeon.co.uk/cinemas/oxford-george-street", "google_place_id": "ChIJ96qj7qXGdkgRGsEhwKVr41Y"}, {"id": 508, "chain": "odeon_gb", "name": "Bath", "address": "James Street West, Bath, BA1 2BX", "latitude": 51.381006, "longitude": -2.364554, "link": "https://www.odeon.co.uk/cinemas/bath", "google_place_id": "ChIJa-DO1RWBcUgR0Elj5I9cdFM"}, {"id": 509, "chain": "odeon_gb", "name": "Stoke", "address": "Etruria Road, Stoke On Trent, ST1 5SN", "latitude": 53.024899, "longitude": -2.193239, "link": "https://www.odeon.co.uk/cinemas/stoke", "google_place_id": "ChIJY0k-wCBoekgRh26EYcwTq_M"}, {"id": 510, "chain": "odeon_gb", "name": "Hull", "address": "Kingston Park, Hull, HU1 2TX", "latitude": 53.737067, "longitude": -0.344768, "link": "https://www.odeon.co.uk/cinemas/hull", "google_place_id": "ChIJI8qSYii-eEgRNqZ_8Z5SP54"}, {"id": 511, "chain": "odeon_gb", "name": "Taunton", "address": "Heron Gate, Taunton, TA1 2LP", "latitude": 51.024502, "longitude": -3.068338, "link": "https://www.odeon.co.uk/cinemas/taunton", "google_place_id": "ChIJJRFsBVz0bUgREP6JU8EMR7M"}, {"id": 512, "chain": "odeon_gb", "name": "Bromborough", "address": "Welton Road, Bromborough, CH62 3PN", "latitude": 53.341046, "longitude": -2.974338, "link": "https://www.odeon.co.uk/cinemas/bromborough", "google_place_id": "ChIJpRScRHEoe0gR8KQEVaiq458"}, {"id": 513, "chain": "odeon_gb", "name": "Leeds Bradford", "address": "Gallagher Leisure Park, Bradford, BD3 7AT", "latitude": 53.800057, "longitude": -1.702782, "link": "https://www.odeon.co.uk/cinemas/leeds-bradford", "google_place_id": "ChIJR62jnnXhe0gR-CAePYjFh2s"}, {"id": 514, "chain": "odeon_gb", "name": "Putney", "address": "26 Putney High Street, London, SW15 1SN", "latitude": 51.465211, "longitude": -0.214239, "link": "https://www.odeon.co.uk/cinemas/putney", "google_place_id": "ChIJgUvfVQwPdkgRQHqiMvvlzBU"}, {"id": 515, "chain": "odeon_gb", "name": "Chelmsford", "address": "Kings Head Walk, Chelmsford, CM2 6FH", "latitude": 51.73099, "longitude": 0.475479, "link": "https://www.odeon.co.uk/cinemas/chelmsford", "google_place_id": "ChIJr6Di7X3p2EcRWO_4gLsin8I"}, {"id": 516, "chain": "odeon_gb", "name": "Southend", "address": "London Road, SouthEnd, SS1 1TJ", "latitude": 51.540538, "longitude": 0.711396, "link": "https://www.odeon.co.uk/cinemas/southend", "google_place_id": "ChIJn56pHYsn2UcRnVqT4i5r4dg"}, {"id": 517, "chain": "odeon_gb", "name": "Leicester", "address": "90 Aylestone Road, Leicester, LE2 7LB", "latitude": 52.620175, "longitude": -1.135802, "link": "https://www.odeon.co.uk/cinemas/leicester", "google_place_id": "ChIJqRi6Hihhd0gRFxq_7lCxjVk"}, {"id": 518, "chain": "odeon_gb", "name": "Dunfermline", "address": "1 Whimbrel Place, Dunfermline, KY11 8EX", "latitude": 56.078137, "longitude": -3.394927, "link": "https://www.odeon.co.uk/cinemas/dunfermline", "google_place_id": "ChIJ1cR6Z93Nh0gRkjgGNe7lBjk"}, {"id": 519, "chain": "odeon_gb", "name": "Guildford", "address": "Bedford Road, Guildford, GU1 4SJ", "latitude": 51.238096, "longitude": -0.579108, "link": "https://www.odeon.co.uk/cinemas/guildford", "google_place_id": "ChIJs9UQLpTQdUgR0fw3eb1uIIg"}, {"id": 520, "chain": "odeon_gb", "name": "Tunbridge Wells", "address": "Knights Way, Tunbridge Wells, TN2 3UW", "latitude": 51.154325, "longitude": 0.296648, "link": "https://www.odeon.co.uk/cinemas/tunbridge-wells", "google_place_id": "ChIJ9-WV72tG30cRZsN0xJG5zc0"}, {"id": 521, "chain": "odeon_gb", "name": "Colchester", "address": "Head Street, Colchester, CO1 1NH", "latitude": 51.888715, "longitude": 0.896027, "link": "https://www.odeon.co.uk/cinemas/colchester", "google_place_id": "ChIJr2Z6V_YE2UcRv44PVr-opnA"}, {"id": 522, "chain": "odeon_gb", "name": "Liverpool Switch Island", "address": "Dunnings Bridge Road, Liverpool, L30 6TQ", "latitude": 53.48701, "longitude": -2.965006, "link": "https://www.odeon.co.uk/cinemas/liverpool-switch-island", "google_place_id": "ChIJwVAivZgje0gRfIKAQnWBKsE"}, {"id": 523, "chain": "odeon_gb", "name": "Kettering", "address": "Wellingborough Road, Kettering, NN15 6XS", "latitude": 52.373315, "longitude": -0.71693, "link": "https://www.odeon.co.uk/cinemas/kettering", "google_place_id": "ChIJf66IHG6fd0gR3_jriwoT1z8"}, {"id": 524, "chain": "odeon_gb", "name": "Glasgow Quay", "address": "Paisley Road, Glasgow, G5 8NP", "latitude": 55.854544, "longitude": -4.276653, "link": "https://www.odeon.co.uk/cinemas/glasgow-quay", "google_place_id": "ChIJHYjBhSBEiEgRUYbByJmU6ec"}, {"id": 525, "chain": "odeon_gb", "name": "Kingston", "address": "Clarence Street, Kingston, KT1 1QP", "latitude": 51.411718, "longitude": -0.299275, "link": "https://www.odeon.co.uk/cinemas/kingston", "google_place_id": "ChIJwaMnL-oLdkgRR32ke4DYqsY"}, {"id": 527, "chain": "odeon_gb", "name": "Bridgend", "address": "Pen Y Cae Lane, Bridgend, CF32 9ST", "latitude": 51.532436, "longitude": -3.574561, "link": "https://www.odeon.co.uk/cinemas/bridgend", "google_place_id": "ChIJU1AtpW5sbkgRO2fGbDxQThU"}, {"id": 529, "chain": "odeon_gb", "name": "Wimbledon", "address": "39 The Broadway, London, SW19 1QB", "latitude": 51.41987, "longitude": -0.204848, "link": "https://www.odeon.co.uk/cinemas/wimbledon", "google_place_id": "ChIJA_jO-LkIdkgR_g-lQLTjVaI"}, {"id": 530, "chain": "odeon_gb", "name": "Liverpool One", "address": "14 Paradise Street, Liverpool, L1 8JF", "latitude": 53.404329, "longitude": -2.98688, "link": "https://www.odeon.co.uk/cinemas/liverpool-one", "google_place_id": "ChIJjTcPoS8he0gRqeeENBVep40"}, {"id": 531, "chain": "odeon_gb", "name": "Lincoln", "address": "Brayford Wharf North, Lincoln, LN1 1YS", "latitude": 53.228832, "longitude": -0.543549, "link": "https://www.odeon.co.uk/cinemas/lincoln", "google_place_id": "ChIJh7E2biZbeEgRXADOYTyKTFw"}, {"id": 532, "chain": "odeon_gb", "name": "Epsom", "address": "14b-18 Upper High Street, Epsom, KT17 4QJ", "latitude": 51.333945, "longitude": -0.262308, "link": "https://www.odeon.co.uk/cinemas/epsom", "google_place_id": "ChIJAeL5MRLidUgR6ggAeVrClHA"}, {"id": 534, "chain": "odeon_gb", "name": "Camden", "address": "14 The Parkway, Camden, NW1 7AA", "latitude": 51.538837, "longitude": -0.143529, "link": "https://www.odeon.co.uk/cinemas/camden", "google_place_id": "ChIJoc3qrOEadkgRor34sQk3QCo"}, {"id": 535, "chain": "odeon_gb", "name": "Uxbridge", "address": "302 The Chimes Shopping Centre, Uxbridge, UB8 1GD", "latitude": 51.545053, "longitude": -0.475615, "link": "https://www.odeon.co.uk/cinemas/uxbridge", "google_place_id": "ChIJcZ1xXg5udkgRleINWx2c0Ls"}, {"id": 536, "chain": "odeon_gb", "name": "Wrexham Eagles Meadow", "address": "Eagles Meadow, Wrexham, LL13 8DG", "latitude": 53.044014, "longitude": -2.987956, "link": "https://www.odeon.co.uk/cinemas/wrexham-eagles-meadow", "google_place_id": "ChIJbd-4HRzHekgRrFPDzZazZR0"}, {"id": 537, "chain": "odeon_gb", "name": "Belfast", "address": "No. 1 Victoria Square, Belfast, BT1 4QG", "latitude": 54.598382, "longitude": -5.925534, "link": "https://www.odeon.co.uk/cinemas/belfast", "google_place_id": "ChIJd4gTuFUIYUgRn2a_6Dypl4E"}, {"id": 538, "chain": "odeon_gb", "name": "Braehead", "address": "Kings Inch Road, Renfrew, PA4 8XQ", "latitude": 55.879259, "longitude": -4.371374, "link": "https://www.odeon.co.uk/cinemas/braehead", "google_place_id": "ChIJqdNUH0BPiEgR4OXbLnFZ2ls"}, {"id": 539, "chain": "odeon_gb", "name": "Streatham", "address": "47-49 High Road, London, SW16 1PW", "latitude": 51.432166, "longitude": -0.12861, "link": "https://www.odeon.co.uk/cinemas/streatham", "google_place_id": "ChIJg4Yu3icEdkgRMNxJdQaYbq4"}, {"id": 540, "chain": "odeon_gb", "name": "Beckenham", "address": "The High Street, Beckenham, BR3 1DY", "latitude": 51.407131, "longitude": -0.031209, "link": "https://www.odeon.co.uk/cinemas/beckenham", "google_place_id": "ChIJC9FrWb4BdkgR39p0weETC7s"}, {"id": 541, "chain": "odeon_gb", "name": "Bristol", "address": "Union Street, Bristol, BS1 2DS", "latitude": 51.456757, "longitude": -2.591417, "link": "https://www.odeon.co.uk/cinemas/bristol", "google_place_id": "ChIJZxUxEXeOcUgRJ5bZfO3SCr8"}, {"id": 542, "chain": "odeon_gb", "name": "Edinburgh Lothian Road", "address": "118 Lothian Road, Edinburgh, EH3 8BG", "latitude": 55.94569, "longitude": -3.205991, "link": "https://www.odeon.co.uk/cinemas/edinburgh-lothian-road", "google_place_id": "ChIJ0dHJoJjHh0gR2OOU0z7-SUg"}, {"id": 543, "chain": "odeon_gb", "name": "Andover", "address": "Anton Mill Road, Andover, SP10 2RW", "latitude": 51.203778, "longitude": -1.482205, "link": "https://www.odeon.co.uk/cinemas/andover", "google_place_id": "ChIJj9ved5gHdEgRPWE3_7FzLhk"}, {"id": 544, "chain": "odeon_gb", "name": "Crewe", "address": "Dunwoody Way, Crewe, CW1 3AW", "latitude": 53.095913, "longitude": -2.443759, "link": "https://www.odeon.co.uk/cinemas/crewe", "google_place_id": "ChIJ4aGLiPf1ekgRZe1GAVrlIK4"}, {"id": 545, "chain": "odeon_gb", "name": "Newark", "address": "23 London Road, Newark on Trent, NG24 1TN", "latitude": 53.074072, "longitude": -0.808443, "link": "https://www.odeon.co.uk/cinemas/newark", "google_place_id": "ChIJHRKpitW0eUgRpK3KXyNu9Mc"}, {"id": 546, "chain": "odeon_gb", "name": "Loughborough", "address": "7 Cattle Market, Loughborough, LE11 3DL", "latitude": 52.770305, "longitude": -1.206681, "link": "https://www.odeon.co.uk/cinemas/loughborough", "google_place_id": "ChIJa6aAjrrgeUgR0LuQ9J-3mnA"}, {"id": 547, "chain": "odeon_gb", "name": "Swadlincote", "address": "Coppice Side, Swadlincote, Derbyshire, DE11 9FQ", "latitude": 52.771961, "longitude": -1.556199, "link": "https://www.odeon.co.uk/cinemas/swadlincote", "google_place_id": "ChIJbyZhCC__eUgR6iIWAkpu2O8"}, {"id": 548, "chain": "odeon_gb", "name": "Llanelli", "address": "Island Place, Llanelli, SA15 1SG", "latitude": 51.682642, "longitude": -4.157784, "link": "https://www.odeon.co.uk/cinemas/llanelli", "google_place_id": "ChIJOQE4AujtbkgRBlGiI4mj5VE"}, {"id": 549, "chain": "odeon_gb", "name": "West Bromwich", "address": "West Bromwich, West Bromwich, B70 7NN", "latitude": 52.5197, "longitude": -1.992008, "link": "https://www.odeon.co.uk/cinemas/west-bromwich", "google_place_id": "ChIJ7U83VAKYcEgRtwknoUw-Sz8"}, {"id": 550, "chain": "odeon_gb", "name": "Basingstoke", "address": "Churchill Way West, Basingstoke, RG22 6PG", "latitude": 51.265508, "longitude": -1.11855, "link": "https://www.odeon.co.uk/cinemas/basingstoke", "google_place_id": "ChIJ_dOEzo0hdEgRQnocX6M5I18"}, {"id": 551, "chain": "odeon_gb", "name": "Harrogate", "address": "East Parade, Harrogate, HG1 5LB", "latitude": 53.992351, "longitude": -1.53581, "link": "https://www.odeon.co.uk/cinemas/harrogate", "google_place_id": "ChIJ5Z4fHd5TeUgRGCD51lpju-M"}, {"id": 552, "chain": "odeon_gb", "name": "Brighton", "address": "Kingswest, Brighton, BN1 2RE", "latitude": 50.821079, "longitude": -0.145293, "link": "https://www.odeon.co.uk/cinemas/brighton", "google_place_id": "ChIJE40EkgyFdUgRP-D4rLDfywg"}, {"id": 553, "chain": "odeon_gb", "name": "Swiss Cottage", "address": "96 Finchley Road, London, NW3 5EL", "latitude": 51.54251, "longitude": -0.174568, "link": "https://www.odeon.co.uk/cinemas/swiss-cottage", "google_place_id": "ChIJfT18wZAadkgRa-MJnQ-Z3QI"}, {"id": 554, "chain": "odeon_gb", "name": "Edinburgh West", "address": "120 Wester Hailes Road, Edinburgh, EH14 3HR", "latitude": 55.915055, "longitude": -3.285897, "link": "https://www.odeon.co.uk/cinemas/edinburgh-west", "google_place_id": "ChIJLQvPhZ_Gh0gRfCvUPXXFpUU"}, {"id": 555, "chain": "odeon_gb", "name": "Mansfield", "address": "Nottingham Road, Mansfield, NG18 1BU", "latitude": 53.134927, "longitude": -1.200858, "link": "https://www.odeon.co.uk/cinemas/mansfield", "google_place_id": "ChIJ33xEYfq9eUgRQLRvcQbG0-A"}, {"id": 556, "chain": "odeon_gb", "name": "Rochdale", "address": "Sandbrook Way, Rochdale, OL11 1RY", "latitude": 53.602833, "longitude": -2.164534, "link": "https://www.odeon.co.uk/cinemas/rochdale", "google_place_id": "ChIJYVnmnmO5e0gRJS0IEJLDLiw"}, {"id": 557, "chain": "odeon_gb", "name": "Aylesbury", "address": "Exchange Street, Aylesbury, HP20 1UR", "latitude": 51.815339, "longitude": -0.810276, "link": "https://www.odeon.co.uk/cinemas/aylesbury", "google_place_id": "ChIJMf3rU6j3dkgRRvSP9Y6MDlY"}, {"id": 558, "chain": "odeon_gb", "name": "Birmingham Broadway Plaza", "address": "220 Ladywood Middleway, Birmingham, B16 8LP", "latitude": 52.473775, "longitude": -1.921822, "link": "https://www.odeon.co.uk/cinemas/birmingham-broadway-plaza", "google_place_id": "ChIJBVnMfPi8cEgR-7wgAwOM5p4"}, {"id": 559, "chain": "odeon_gb", "name": "Trowbridge", "address": "St Stephens Place, Trowbridge, BA14 8TQ", "latitude": 51.318011, "longitude": -2.205819, "link": "https://www.odeon.co.uk/cinemas/trowbridge", "google_place_id": "ChIJTa6KV_DVc0gRp8018rUoUR0"}, {"id": 560, "chain": "odeon_gb", "name": "Hereford", "address": "Garrick Lane The Old Market, Hereford, HR4 9HR", "latitude": 52.058278, "longitude": -2.717624, "link": "https://www.odeon.co.uk/cinemas/hereford", "google_place_id": "ChIJTxyG4v5UZUER-IQrdkEkVYc"}, {"id": 561, "chain": "odeon_gb", "name": "Milton Keynes Stadium", "address": "12 Stadium Way West, Milton Keynes, MK1 1ST", "latitude": 52.010907, "longitude": -0.734392, "link": "https://www.odeon.co.uk/cinemas/milton-keynes-stadium", "google_place_id": "ChIJla39LJaqd0gRCHMy6zobFLE"}, {"id": 562, "chain": "odeon_gb", "name": "Edinburgh Fort Kinnaird", "address": "Newcraighall, Edinburgh, EH15 3RD", "latitude": 55.93522, "longitude": -3.105287, "link": "https://www.odeon.co.uk/cinemas/edinburgh-fort-kinnaird", "google_place_id": "ChIJRYGH3AW5h0gRYwWvVThLEMk"}, {"id": 563, "chain": "odeon_gb", "name": "Oldham", "address": "The Old Town Hall, Parliament Square, Greaves Street, Oldham, OL1 1RA", "latitude": 53.541811, "longitude": -2.111197, "link": "https://www.odeon.co.uk/cinemas/oldham", "google_place_id": "ChIJL_460oG3e0gR_YBaNf2TZ_8"}, {"id": 564, "chain": "odeon_gb", "name": "Orpington", "address": "The Walnuts Shopping Centre, Orpington, Kent, BR6 0TW", "latitude": 51.376633, "longitude": 0.101294, "link": "https://www.odeon.co.uk/cinemas/orpington", "google_place_id": "ChIJ4yc3EJus2EcRu01aVqOUm88"}, {"id": 565, "chain": "odeon_gb", "name": "Northwich Barons Quay", "address": "Barons Quay, 1 Weaver Point Way, Northwich, CW9 5FT", "latitude": 53.262404, "longitude": -2.514584, "link": "https://www.odeon.co.uk/cinemas/northwich-barons-quay", "google_place_id": "ChIJG5tCHST5ekgRzMpOrNAAQ-s"}, {"id": 566, "chain": "odeon_gb", "name": "Bournemouth BH2", "address": "Exeter Crescent, Bournemouth, BH2 5AU", "latitude": 50.718973, "longitude": -1.879804, "link": "https://www.odeon.co.uk/cinemas/bournemouth-bh2", "google_place_id": "ChIJx0NZU8Shc0gRJBF3yeEu-V8"}, {"id": 567, "chain": "odeon_gb", "name": "Manchester Great Northern", "address": "235 Deansgate, Manchester, M3 4EN", "latitude": 53.476322, "longitude": -2.249672, "link": "https://www.odeon.co.uk/cinemas/manchester-great-northern", "google_place_id": "ChIJDSWIDeixe0gRzgunBwf5YUY"}, {"id": 568, "chain": "odeon_gb", "name": "Stafford", "address": "Waterfront Way & Unit 1, Bridge Street, Stafford, ST16 2HQ", "latitude": 52.80466, "longitude": -2.115386, "link": "https://www.odeon.co.uk/cinemas/stafford", "google_place_id": "ChIJQXukoXtxekgR74WlnVedZvk"}, {"id": 569, "chain": "odeon_gb", "name": "Islington", "address": "13 Esther Anne Place, Islington, London, N1 1TU", "latitude": 51.538867, "longitude": -0.10365, "link": "https://www.odeon.co.uk/cinemas/islington", "google_place_id": "ChIJyy63sQ0bdkgR81Gq2Vp-d_4"}, {"id": 570, "chain": "odeon_gb", "name": "Durham", "address": "Unit 15 The Riverwalk, Waterside, Durham, DH1 4SL", "latitude": 54.777525, "longitude": -1.578092, "link": "https://www.odeon.co.uk/cinemas/durham", "google_place_id": "ChIJJ_JdRJR9fkgR8sHcr2Gff7s"}, {"id": 571, "chain": "odeon_gb", "name": "Leeds Thorpe Park", "address": "Unit 14, The Springs, Thorpe Park View, Leeds, Leeds, LS15 8GH", "latitude": 53.800297, "longitude": -1.425379, "link": "https://www.odeon.co.uk/cinemas/leeds-thorpe-park", "google_place_id": "ChIJYRyiiFBDeUgRdJ1ulSLv1tU"}, {"id": 573, "chain": "odeon_gb", "name": "Richmond", "address": "72 Hill Street, Richmond, TW9 1TW", "latitude": 51.458313, "longitude": -0.30526, "link": "https://www.odeon.co.uk/cinemas/richmond", "google_place_id": "ChIJiVzHnTgMdkgRTchAtS0A0tY"}, {"id": 574, "chain": "odeon_gb", "name": "Warrington", "address": "Cromwell Avenue, Warrington, WA5 8UD", "latitude": 53.407231, "longitude": -2.632903, "link": "https://www.odeon.co.uk/cinemas/warrington", "google_place_id": "ChIJIwY1cwEDe0gRF_ev_M4sDw0"}, {"id": 575, "chain": "odeon_gb", "name": "Dudley", "address": "Brierley Hill, Dudley, DY5 1SY", "latitude": 52.479659, "longitude": -2.114128, "link": "https://www.odeon.co.uk/cinemas/dudley", "google_place_id": "ChIJC84i--aQcEgRC9ZUZ4S6S98"}, {"id": 576, "chain": "odeon_gb", "name": "Telford", "address": "Telford Town Centre, Telford, TF3 4NE", "latitude": 52.679159, "longitude": -2.448892, "link": "https://www.odeon.co.uk/cinemas/telford", "google_place_id": "ChIJI15DcymAekgR5Ff8Yv5ZRVg"}, {"id": 577, "chain": "odeon_gb", "name": "Derby", "address": "Mansfield Road, Derby, DE21 4SY", "latitude": 52.938936, "longitude": -1.463444, "link": "https://www.odeon.co.uk/cinemas/derby", "google_place_id": "ChIJddKjw3rxeUgRfMS96U4wbbM"}, {"id": 578, "chain": "odeon_gb", "name": "Swansea", "address": "Parc Tawe, Swansea, SA1 2BA", "latitude": 51.621636, "longitude": -3.939786, "link": "https://www.odeon.co.uk/cinemas/swansea", "google_place_id": "ChIJG0ByyEv1bkgRV4IG5pKBmR0"}, {"id": 579, "chain": "odeon_gb", "name": "East Kilbride", "address": "Rothesay Street, East Kilbride, G74 1PG", "latitude": 55.759959, "longitude": -4.175375, "link": "https://www.odeon.co.uk/cinemas/east-kilbride", "google_place_id": "ChIJ_4S-GyFEiEgRLOC68UIA6UQ"}, {"id": 580, "chain": "odeon_gb", "name": "Preston", "address": "Riversway, Preston, PR2 2YQ", "latitude": 53.759522, "longitude": -2.728529, "link": "https://www.odeon.co.uk/cinemas/preston", "google_place_id": "ChIJj18erZpte0gREcQ_0FhJRfo"}, {"id": 581, "chain": "odeon_gb", "name": "Bracknell", "address": "Skimped Hill Lane, Bracknell, RG12 1EN", "latitude": 51.415829, "longitude": -0.754039, "link": "https://www.odeon.co.uk/cinemas/bracknell", "google_place_id": "ChIJzVIQl81-dkgRIrrucEK19kg"}, {"id": 582, "chain": "odeon_gb", "name": "Hatfield", "address": "Comet Way, Hatfield, AL10 9TF", "latitude": 51.762777, "longitude": -0.238338, "link": "https://www.odeon.co.uk/cinemas/hatfield", "google_place_id": "ChIJdZ3gQX48dkgR5mQlG-SucAY"}, {"id": 583, "chain": "odeon_gb", "name": "Tamworth", "address": "50 Bolebridge Street, Tamworth, B79 7PB", "latitude": 52.631871, "longitude": -1.690708, "link": "https://www.odeon.co.uk/cinemas/tamworth", "google_place_id": "ChIJAY0mIWKpcEgRZcnYpLP1aKE"}, {"id": 584, "chain": "odeon_gb", "name": "Port Solent", "address": "Portway, Cosham, PO6 4TS", "latitude": 50.840548, "longitude": -1.09658, "link": "https://www.odeon.co.uk/cinemas/port-solent", "google_place_id": "ChIJN-9GurJCdEgRQES_hzY0TiM"}, {"id": 585, "chain": "odeon_gb", "name": "Lee Valley", "address": "Picketts Lock Lane, Edmonton, N9 0AS", "latitude": 51.633147, "longitude": -0.03724, "link": "https://www.odeon.co.uk/cinemas/lee-valley", "google_place_id": "ChIJZ9BlTloedkgRMx_MWbh5iB0"}, {"id": 586, "chain": "odeon_gb", "name": "Surrey Quays", "address": "Redriff Road, London, SE16 7LL", "latitude": 51.495932, "longitude": -0.044772, "link": "https://www.odeon.co.uk/cinemas/surrey-quays", "google_place_id": "ChIJGTY0qN8CdkgR5fzIXjzgJsY"}, {"id": 587, "chain": "odeon_gb", "name": "Huddersfield", "address": "Bradley Mills Road, Huddersfield, HD1 6PG", "latitude": 53.655467, "longitude": -1.766136, "link": "https://www.odeon.co.uk/cinemas/huddersfield", "google_place_id": "ChIJl1TL1Bnce0gR0NeKgVNAKk4"}, {"id": 588, "chain": "odeon_gb", "name": "Cardiff", "address": "Hemingway Road, Cardiff, CF10 4JY", "latitude": 51.466679, "longitude": -3.164152, "link": "https://www.odeon.co.uk/cinemas/cardiff", "google_place_id": "ChIJEeiCmzYDbkgRvq-zbNuBeOs"}, {"id": 589, "chain": "odeon_gb", "name": "Trafford Centre", "address": "The Trafford Centre, Manchester, M17 8DF", "latitude": 53.465803, "longitude": -2.348023, "link": "https://www.odeon.co.uk/cinemas/trafford-centre", "google_place_id": "ChIJdbhcBYiue0gRLOTcKTIugGc"}, {"id": 590, "chain": "odeon_gb", "name": "Norwich", "address": "Wherry Road, Norwich, NR1 1XA", "latitude": 52.625385, "longitude": 1.304609, "link": "https://www.odeon.co.uk/cinemas/norwich", "google_place_id": "ChIJ6VjBJuzj2UcRK9TV-EC0LG0"}, {"id": 591, "chain": "odeon_gb", "name": "Silverlink", "address": "Osprey Drive, Wallsend, NE28 9NP", "latitude": 55.012835, "longitude": -1.49494, "link": "https://www.odeon.co.uk/cinemas/silverlink", "google_place_id": "ChIJMZiVUshwfkgR4LmxT8RiJe4"}, {"id": 592, "chain": "odeon_gb", "name": "Maidenhead", "address": "42-44 King Street, Maidenhead, SL6 1DY", "latitude": 51.520482, "longitude": -0.722848, "link": "https://www.odeon.co.uk/cinemas/maidenhead", "google_place_id": "ChIJvY6fSs5idkgROwpKHFlNpSg"}, {"id": 593, "chain": "odeon_gb", "name": "Greenwich", "address": "Bugsby Way, London, SE10 0QJ", "latitude": 51.490592, "longitude": 0.012793, "link": "https://www.odeon.co.uk/cinemas/greenwich", "google_place_id": "ChIJV9DJkD6o2EcRU7piWt6eKBM"}, {"id": 594, "chain": "odeon_gb", "name": "Metrocentre", "address": "Metrocentre, Gateshead, NE11 9XZ", "latitude": 54.958967, "longitude": -1.670009, "link": "https://www.odeon.co.uk/cinemas/metrocentre", "google_place_id": "ChIJswydRXl3fkgRpAhbVuAnG_Q"}, {"id": 595, "chain": "odeon_gb", "name": "Dorchester", "address": "3 Drayhorse Yard, Dorchester, DT1 1GA", "latitude": 50.709996, "longitude": -2.438788, "link": "https://www.odeon.co.uk/cinemas/dorchester", "google_place_id": "ChIJS5VkwtpZckgRoAWJMUU_HO0"}, {"id": 596, "chain": "prince_charles", "name": "Prince Charles Cinema", "address": "7 Leicester Pl, London, WC2H 7BY", "latitude": 51.511447, "longitude": -0.130198, "link": "https://princecharlescinema.com/", "google_place_id": "ChIJs_wVR9IEdkgRqColcXYGFE0"}, {"id": 597, "chain": "everyman", "name": "Edinburgh", "address": "502 St James Crescent, Edinburgh, Midlothian, EH1 3AE", "latitude": 55.955002, "longitude": -3.188182, "link": "https://www.everymancinema.com/edinburgh", "google_place_id": "ChIJqUc703XHh0gREth1x0KBhvY"}, {"id": 630, "chain": "cineworld", "name": "Hounslow", "address": "Hounslow High Street Quarter, Unity Square, London, TW3 1EL", "latitude": 51.469678, "longitude": -0.362098, "link": "https://www.cineworld.co.uk/cinemas/london-hounslow", "google_place_id": "ChIJmTQB1YkNdkgRSdm8rrhpx-A"}, {"id": 631, "chain": "curzon", "name": "Aldgate", "address": "2 Canter Way, London, E1 8PS", "latitude": 51.513774, "longitude": -0.069008, "link": "https://www.curzon.com/venues/aldgate/", "google_place_id": "ChIJzfP8QzUDdkgRztMWXSgRves"}, {"id": 632, "chain": "curzon", "name": "Curzon Bloomsbury", "address": "The Brunswick, London, WC1N 1AW", "latitude": 51.52411, "longitude": -0.123106, "link": "https://www.curzon.com/venues/curzon-bloomsbury/", "google_place_id": "ChIJxePkNjcbdkgRiaZ0HLGdLAI"}, {"id": 633, "chain": "curzon", "name": "Camden", "address": "Arches N7 - N14, Dockray Place Hawley Wharf, NW1 8QD", "latitude": 51.54225, "longitude": -0.143483, "link": "https://www.curzon.com/venues/camden/", "google_place_id": "ChIJHU9qcfYbdkgRMWRi2tSEWlU"}, {"id": 634, "chain": "curzon", "name": "Curzon Canterbury", "address": "Westgate Hall Road, Canterbury, CT1 2BT", "latitude": 51.281549, "longitude": 1.077357, "link": "https://www.curzon.com/venues/curzon-canterbury/", "google_place_id": "ChIJ9T6KLbTL3kcRRXfn-yM1AX4"}, {"id": 635, "chain": "curzon", "name": "Colchester", "address": "Roman House, 19 Queen Street, Colchester, CO1 2PH", "latitude": 51.889173, "longitude": 0.904432, "link": "https://www.curzon.com/venues/colchester/", "google_place_id": "ChIJuYYM6eAF2UcRe0tB07j0fis"}, {"id": 636, "chain": "curzon", "name": "Hoxton", "address": "55 Pitfield St, London, N1 6BU", "latitude": 51.528892, "longitude": -0.083752, "link": "https://www.curzon.com/venues/hoxton/", "google_place_id": "ChIJ0U066KQcdkgRaxIgOmM2ZtU"}, {"id": 637, "chain": "curzon", "name": "Knutsford", "address": "Toft Road, Knutsford, WA16 0PE", "latitude": 53.301973, "longitude": -2.372761, "link": "https://www.curzon.com/venues/knutsford/", "google_place_id": "ChIJ-bonhKZVekgR54KKO62sjAY"}, {"id": 638, "chain": "curzon", "name": "Curzon Mayfair", "address": "38 Curzon Street, London, W1J 7TY", "latitude": 51.506567, "longitude": -0.147946, "link": "https://www.curzon.com/venues/curzon-mayfair/", "google_place_id": "ChIJlXAEIy8FdkgR1qaSOxyAsfc"}, {"id": 639, "chain": "curzon", "name": "Oxford", "address": "Westgate Centre, Oxford, OX1 1NZ", "latitude": 51.749426, "longitude": -1.261973, "link": "https://www.curzon.com/venues/oxford/", "google_place_id": "ChIJhdyOGLvGdkgRwtWf6iwlIJ0"}, {"id": 640, "chain": "curzon", "name": "Curzon Richmond", "address": "Water Lane, Richmond, TW9 1TJ", "latitude": 51.459236, "longitude": -0.30703, "link": "https://www.curzon.com/venues/curzon-richmond/", "google_place_id": "ChIJDeGlH2IMdkgRgNY8wJ-NeTM"}, {"id": 642, "chain": "curzon", "name": "Sheffield", "address": "16 George Street, Sheffield, S1 2PF", "latitude": 53.382362, "longitude": -1.467146, "link": "https://www.curzon.com/venues/sheffield/", "google_place_id": "ChIJuQ_Ch3h4eUgRMEFyhB7StPg"}, {"id": 643, "chain": "curzon", "name": "Curzon Soho", "address": "99 Shaftesbury Avenue, London, W1D 5DY", "latitude": 51.5127, "longitude": -0.130585, "link": "https://www.curzon.com/venues/curzon-soho/", "google_place_id": "ChIJR_tP9tIEdkgR50LK64QCsck"}, {"id": 644, "chain": "curzon", "name": "Victoria", "address": "58 Victoria Street, London, SW1E 6QW", "latitude": 51.497488, "longitude": -0.136826, "link": "https://www.curzon.com/venues/victoria/", "google_place_id": "ChIJm73q7d4EdkgRFNtwvH-wdJs"}, {"id": 645, "chain": "curzon", "name": "Wimbledon", "address": "Second Floor, 23 The Broadway, London, SW19 1RE", "latitude": 51.420338, "longitude": -0.205546, "link": "https://www.curzon.com/venues/wimbledon/", "google_place_id": "ChIJU0KaVbcIdkgRw1Y5wo0pmqw"}, {"id": 646, "chain": "northern_light", "name": "The Northern Light Cinema", "address": "The Malthouse, 13A North End, Wirksworth, Derbyshire, DE4 4FG", "latitude": 53.08328, "longitude": -1.571366, "link": "https://thenorthernlightcinema.co.uk", "google_place_id": "ChIJIVeMz1aKeUgREarH-pB5z18"}, {"id": 647, "chain": "king_street", "name": "King Street Cinema", "address": "The Corn Exchange, King Street, Ipswich, IP1 1DH", "latitude": 52.057353, "longitude": 1.152354, "link": "https://kingstreetcinema.co.uk", "google_place_id": "ChIJA6iYIC2g2UcRaN7Ff8r8iAk"}, {"id": 648, "chain": "breweryarts", "name": "Brewery Arts", "address": "122A Highgate, Kendal, LA9 4HE", "latitude": 54.324736, "longitude": -2.750777, "link": "https://www.breweryarts.co.uk", "google_place_id": "ChIJq21GNOaNfEgRUk_PADpF2LI"}, {"id": 649, "chain": "sjt", "name": "Stephen Joseph Theatre", "address": "Westborough, Scarborough, YO11 1JW", "latitude": 54.280441, "longitude": -0.405667, "link": "https://www.sjt.uk.com", "google_place_id": "ChIJG7KqzPJHf0gROJjQVYTkKvs"}, {"id": 650, "chain": "upp", "name": "The Ultimate Picture Palace", "address": "Jeune St, Cowley Rd, Oxford, OX4 1BN", "latitude": 51.748772, "longitude": -1.239346, "link": "https://uppcinema.com/", "google_place_id": "ChIJM6F3ek7BdkgRS_PrvMQ20vc"}, {"id": 651, "chain": "ritz", "name": "The Ritz Cinema Belper", "address": "76B King St, Belper, DE56 1QA", "latitude": 53.023248, "longitude": -1.47982, "link": "https://ritz-belper.co.uk/", "google_place_id": "ChIJg18FqznzeUgRSvpWbSWOB8E"}, {"id": 652, "chain": "southhill_park", "name": "Southhill Park", "address": "Ringmead, Bracknell, RG12 7PA", "latitude": 51.393804, "longitude": -0.749974, "link": "https://www.southhillpark.org.uk/", "google_place_id": "ChIJW3J0Dyl-dkgRZWkuitO-zPg"}, {"id": 653, "chain": "courtyard", "name": "The Courtyard Cinema", "address": "Edgar St, Hereford, HR4 9JR", "latitude": 52.060851, "longitude": -2.718923, "link": "https://www.courtyard.org.uk/", "google_place_id": "ChIJEdhbikFLcEgRqzjMTiVS758"}, {"id": 655, "chain": "firstsite", "name": "Firstsite", "address": "Lewis Gardens, High Street, Colchester, CO1 1JH", "latitude": 51.888981, "longitude": 0.903178, "link": "https://firstsite.uk", "google_place_id": "ChIJwdQ5qPkE2UcRoiqw-0jJ4dc"}, {"id": 656, "chain": "lighthousepoole", "name": "Lighthouse", "address": "21 Kingland Road, Poole, Dorset, BH15 1UG", "latitude": 50.71841, "longitude": -1.979816, "link": "https://www.lighthousepoole.co.uk", "google_place_id": "ChIJ126BXcKmc0gRMRLbkBbjD9A"}, {"id": 657, "chain": "everyman", "name": "Egham", "address": "Gem House, Station Road House, Egham, Egham, TW20 9FG", "latitude": 51.430898, "longitude": -0.548005, "link": "https://www.everymancinema.com/egham", "google_place_id": "ChIJzy5_j9BxdkgRv3ua5vSLToU"}, {"id": 658, "chain": "dukeslancaster", "name": "Dukes Cinema", "address": "Moor Ln, Lancaster, LA1 1QE", "latitude": 54.049141, "longitude": -2.797048, "link": "https://dukeslancaster.org/", "google_place_id": "ChIJDQ1OjoBie0gR8zHtMmkA6AM"}, {"id": 659, "chain": "watershed", "name": "Watershed", "address": "Watershed, 1 Canons Road, Harbourside, Bristol, BS1 5TX", "latitude": 51.451394, "longitude": -2.598254, "link": "https://www.watershed.co.uk/", "google_place_id": "ChIJb3DVWNaNcUgREEW6As4Hhgc"}, {"id": 661, "chain": "dartington", "name": "Dartington Trust Barn Cinema", "address": "Dartington Hall, Upper Drive, Totnes, TQ9 6EL", "latitude": 50.45216, "longitude": -3.69347, "link": "https://www.dartington.org/", "google_place_id": "ChIJEcIZUcwcbUgR-PLhvrrxas4"}, {"id": 662, "chain": "eden_court", "name": "Eden Court Inverness", "address": "Bishops Rd, Inverness, IV3 5SA", "latitude": 57.472864, "longitude": -4.230915, "link": "http://www.eden-court.co.uk/", "google_place_id": "ChIJnTkPzFBxj0gRRw8Cmkf6G7c"}, {"id": 663, "chain": "wellington_orbit", "name": "Wellington Orbit", "address": "1 Station Rd, Wellington, Telford, TF1 1BY", "latitude": 52.701245, "longitude": -2.518492, "link": "https://wellingtonorbit.co.uk/", "google_place_id": "ChIJrxvJAoGDekgRk2gujTxmiRs"}, {"id": 664, "chain": "merlin", "name": "Capitol Cinema", "address": "Mount Folly Square, Bodmin, Cornwall, PL31 2DB", "latitude": 50.470459, "longitude": -4.719295, "link": "https://bodmin.merlincinemas.co.uk/", "google_place_id": "ChIJPVw0n0N7a0gRHOt8Gx7B8pI"}, {"id": 665, "chain": "merlin", "name": "Flora Cinema", "address": "17 Wendron Street, Helston, Cornwall, TR13 8PT", "latitude": 50.101344, "longitude": -5.273174, "link": "https://helston.merlincinemas.co.uk/", "google_place_id": "ChIJy0tSEYEna0gRUF92PMNdfzU"}, {"id": 666, "chain": "merlin", "name": "Phoenix Cinema", "address": "11 Berkeley Vale, Falmouth, Cornwall, TR11 3PL", "latitude": 50.154085, "longitude": -5.074412, "link": "https://falmouth.merlincinemas.co.uk/", "google_place_id": "ChIJK3KKZVg7a0gRVzOu58Y4EnE"}, {"id": 667, "chain": "merlin", "name": "Regal Cinema", "address": "Fore Street, Redruth, Cornwall, TR15 2AZ", "latitude": 50.233215, "longitude": -5.229684, "link": "https://redruth.merlincinemas.co.uk/", "google_place_id": "ChIJYap-mScga0gRk4RdJKk889c"}, {"id": 668, "chain": "merlin", "name": "Savoy Cinema", "address": "16 Causewayhead, Penzance, Cornwall, TR18 2SN", "latitude": 50.119653, "longitude": -5.538589, "link": "https://penzance.merlincinemas.co.uk/", "google_place_id": "ChIJcc_-PGTEakgRFRWweOQR_Ik"}, {"id": 669, "chain": "merlin", "name": "Royal Cinema", "address": "Royal Square, St. Ives, Cornwall, TR26 2ND", "latitude": 50.211097, "longitude": -5.481949, "link": "https://st-ives.merlincinemas.co.uk/", "google_place_id": "ChIJLV3wB1vdakgRemFDyJSW0-c"}, {"id": 670, "chain": "merlin", "name": "Embassy Cinema", "address": "134 High Street, Ilfracombe, Devon, EX34 9EZ", "latitude": 51.208467, "longitude": -4.121906, "link": "https://ilfracombe.merlincinemas.co.uk/", "google_place_id": "ChIJhc9Sro0mbEgRXkf2rxxfA8s"}, {"id": 671, "chain": "merlin", "name": "Kings Cinema", "address": "Kings Cinema Fore Street, Kingsbridge, Devon, TQ7 1PP", "latitude": 50.285745, "longitude": -3.778053, "link": "https://kingsbridge.merlincinemas.co.uk/", "google_place_id": "ChIJt_uit3jgbEgRn6ugfBmZ7U0"}, {"id": 672, "chain": "merlin", "name": "New Carlton Cinema", "address": "Market Street, Okehampton, Devon, EX20 1HN", "latitude": 50.739423, "longitude": -4.00365, "link": "https://okehampton.merlincinemas.co.uk/", "google_place_id": "ChIJRzDxZIZabEgR0tcxEN3EkEU"}, {"id": 673, "chain": "merlin", "name": "New Central Cinema", "address": "NEW CENTRAL CINEMA 90-96 Union Street Torquay, TQ2 5PY", "latitude": 50.467021, "longitude": -3.530591, "link": "https://torquay.merlincinemas.co.uk/", "google_place_id": "ChIJ21TK9jkPbUgR3OMNQQrPQqY"}, {"id": 674, "chain": "merlin", "name": "Tivoli Cinema", "address": "23 Fore Street, Tiverton, Devon, EX16 6LD", "latitude": 50.902239, "longitude": -3.486583, "link": "https://tiverton.merlincinemas.co.uk/", "google_place_id": "ChIJ302AJGG2bUgRSHlNXEpT1uk"}, {"id": 675, "chain": "merlin", "name": "Studio Cinema", "address": "14 High Street, Coleford, Gloucester, GL16 8HF", "latitude": 51.792519, "longitude": -2.617742, "link": "https://coleford.merlincinemas.co.uk/", "google_place_id": "ChIJxzKPdCW6cUgRVcsrk4KAxa8"}, {"id": 676, "chain": "merlin", "name": "Regal Movieplex", "address": "2-4 Hans Place, Cromer, Norfolk, NR27 9EQ", "latitude": 52.930754, "longitude": 1.300538, "link": "https://cromer.merlincinemas.co.uk/", "google_place_id": "ChIJITFyUXVE10cR4MXOVa6pbrM"}, {"id": 677, "chain": "merlin", "name": "The Regent", "address": "The Regent Redcar, Newcomen Terrace, Redcar, TS10 1AU", "latitude": 54.620602, "longitude": -1.07026, "link": "https://redcar.merlincinemas.co.uk/", "google_place_id": "ChIJa9iirAnwfkgRcuMyLsUIV0M"}, {"id": 678, "chain": "merlin", "name": "Wellesley Cinema", "address": "Mantle Street, Wellington, Somerset, TA21 8AU", "latitude": 50.976062, "longitude": -3.231153, "link": "https://wellington.merlincinemas.co.uk/", "google_place_id": "ChIJx3C55ajybUgRf12722t-aa8"}, {"id": 679, "chain": "merlin", "name": "Merlin Cinema", "address": "Ormlie Rd, Thurso, Caithness, KW14 7QU", "latitude": 58.586221, "longitude": -3.536102, "link": "https://thurso.merlincinemas.co.uk/", "google_place_id": "ChIJldnRmLC4mkgR3zxKzG0u2q8"}, {"id": 680, "chain": "merlin", "name": "Scala Cinema", "address": "47 High Street, Prestatyn, LL19 9AH", "latitude": 53.335422, "longitude": -3.404692, "link": "https://prestatyn.merlincinemas.co.uk/", "google_place_id": "ChIJl0R4twUqZUgRC-5IIgQ2VsE"}, {"id": 681, "chain": "odeon_gb", "name": "Acton", "address": "Western Avenue, Royale Leisure Park, London, W3 0PA", "latitude": 51.525798, "longitude": -0.281298, "link": "https://www.odeon.co.uk/cinemas/acton", "google_place_id": "ChIJXUsEMPgRdkgRVnCaXwQItA8"}, {"id": 682, "chain": "curzon", "name": "Canterbury Riverside", "address": "The Riverside, Kingsmead Rd, Canterbury, CT1 1BN", "latitude": 51.285055, "longitude": 1.086916, "link": "https://www.curzon.com/venues/canterbury-riverside/", "google_place_id": "ChIJYziZDDvL3kcRMYatObt7WZk"}, {"id": 683, "chain": "scott_cinema", "name": "Bridgwater", "address": "Scott Cinemas, Penel Orlieu, Bridgwater, TA6 3PH", "latitude": 51.129734, "longitude": -3.006875, "link": "https://bridgwater.scottcinemas.co.uk/", "google_place_id": "ChIJIz8UZ2IIckgRm38qJ7fU2iQ"}, {"id": 685, "chain": "scott_cinema", "name": "Exmouth", "address": "Savoy Cinema, Strand Gardens, Exmouth, Devon, EX8 1HP", "latitude": 50.619799, "longitude": -3.413549, "link": "https://exmouth.scottcinemas.co.uk/", "google_place_id": "ChIJ9e3YCZgKbUgRNXF4eKO3byQ"}, {"id": 686, "chain": "scott_cinema", "name": "Sidmouth", "address": "Radway Place, Sidmouth, Devon, EX10 8TL", "latitude": 50.682816, "longitude": -3.238647, "link": "https://sidmouth.scottcinemas.co.uk/", "google_place_id": "ChIJUa77ZSudbUgRbwdV4ye6kec"}, {"id": 687, "chain": "scott_cinema", "name": "Newton Abbot", "address": "Alexandra Cinema, Market Street, Newton Abbot, TQ12 2RB", "latitude": 50.530833, "longitude": -3.611944, "link": "https://newtonabbot.scottcinemas.co.uk/", "google_place_id": "ChIJaR5MLdAFbUgRXr73e6AvUTI"}, {"id": 688, "chain": "scott_cinema", "name": "Bristol, Westbury Park", "address": "Northumbria Drive, Westbury Park, Bristol, BS9 4HN", "latitude": 51.480583, "longitude": -2.61226, "link": "https://bristolwestburypark.scottcinemas.co.uk/", "google_place_id": "ChIJh6dwOveNcUgR58X4ObqLi6I"}, {"id": 689, "chain": "scott_cinema", "name": "Barnstaple", "address": "Scott Cinemas, Boutport Street, Barnstaple, Devon, EX31 1SR", "latitude": 51.079342, "longitude": -4.058428, "link": "https://barnstaple.scottcinemas.co.uk/", "google_place_id": "ChIJB21rS5A6bEgRVx1B9qju4l8"}, {"id": 690, "chain": "scott_cinema", "name": "East Grinstead", "address": "5th Floor, Atrium Building, King Street, East Grinstead, RH19 3DJ", "latitude": 51.126535, "longitude": -0.008924, "link": "https://eastgrinstead.scottcinemas.co.uk/", "google_place_id": "ChIJr9HYeSX2dUgR9YTfZoElzXo"}, {"id": 691, "chain": "wtw_cinema", "name": "The Regal Cinema, Wadebridge", "address": "The Platt, Wadebridge, Cornwall, PL27 7AD", "latitude": 50.515219, "longitude": -4.83616, "link": "https://wtwcinemas.co.uk/wadebridge/whats-on/", "google_place_id": "ChIJnYcR8L12a0gR-wJUH6eXu0g"}, {"id": 692, "chain": "wtw_cinema", "name": "The Plaza at Truro", "address": "69 Lemon Street, Truro, Cornwall, TR1 2PN", "latitude": 50.261871, "longitude": -5.052323, "link": "https://wtwcinemas.co.uk/truro/whats-on/", "google_place_id": "ChIJr9WOP0oWa0gRqcx7ztWpHgU"}, {"id": 693, "chain": "wtw_cinema", "name": "White River Cinema, St. Austell", "address": "White River Place, St. Austell, Cornwall, PL25 5AZ", "latitude": 50.337625, "longitude": -4.795151, "link": "https://wtwcinemas.co.uk/st-austell/whats-on/", "google_place_id": "ChIJ5XaEgclua0gRW6x2CC4Nh24"}, {"id": 694, "chain": "wtw_cinema", "name": "Newquay", "address": "King Street, Newquay, Cornwall, TR7 1AA", "latitude": 50.413683, "longitude": -5.087219, "link": "https://wtwcinemas.co.uk/newquay/whats-on/", "google_place_id": "ChIJ-Vr9Q80Pa0gRooEU9cpEjZM"}, {"id": 736, "chain": "picturehouse", "name": "Little Theatre Cinema", "address": "St Michaels Place, Bath, BA1 1SF", "latitude": 51.381111, "longitude": -2.361667, "link": "https://www.picturehouses.com/cinema/little-theatre-cinema", "google_place_id": "ChIJt9aG_xOBcUgRj7LSkId7-Ws"}, {"id": 737, "chain": "picturehouse", "name": "Duke of York's", "address": "Preston Circus, Brighton, BN1 4NA", "latitude": 50.833907, "longitude": -0.138542, "link": "https://www.picturehouses.com/cinema/duke-of-york-s-picturehouse", "google_place_id": "ChIJeWHI6XeFdUgR9awVP5Cfzp4"}, {"id": 738, "chain": "picturehouse", "name": "Duke's at Komedia", "address": "44-47 Gardner Street, Brighton, BN1 1UN", "latitude": 50.824885, "longitude": -0.139417, "link": "https://www.picturehouses.com/cinema/duke-s-at-komedia", "google_place_id": "ChIJbam8M3WFdUgRyLKk3k0dQfA"}, {"id": 739, "chain": "picturehouse", "name": "Arts", "address": "38-39 St Andrew's Street, Cambridge, CB2 3AR", "latitude": 52.202864, "longitude": 0.12349, "link": "https://www.picturehouses.com/cinema/arts-picturehouse-cambridge", "google_place_id": "ChIJwySQdJdw2EcRCRsYVnk1O3U"}, {"id": 740, "chain": "picturehouse", "name": "Cameo", "address": "38 Home Street, Edinburgh, EH3 9LZ", "latitude": 55.942804, "longitude": -3.204017, "link": "https://www.picturehouses.com/cinema/the-cameo", "google_place_id": "ChIJhcSUP5_Hh0gRyRt-WvSr9yY"}, {"id": 741, "chain": "picturehouse", "name": "Exeter", "address": "51 Bartholomew Street West, Exeter, EX4 3AJ", "latitude": 50.720776, "longitude": -3.536361, "link": "https://www.picturehouses.com/cinema/exeter-picturehouse", "google_place_id": "ChIJQWEzCzCkbUgRmh3Uc1uAJes"}, {"id": 742, "chain": "picturehouse", "name": "Regal", "address": "2 Boroma Way, Henley-on-Thames, RG9 2BZ", "latitude": 51.538982, "longitude": -0.904736, "link": "https://www.picturehouses.com/cinema/regal-picturehouse", "google_place_id": "ChIJc33NwKaPdkgR6LptTZRKnbU"}, {"id": 743, "chain": "picturehouse", "name": "FACT", "address": "88 Wood Street, Liverpool, L1 4DQ", "latitude": 53.402254, "longitude": -2.977548, "link": "https://www.picturehouses.com/cinema/picturehouse-at-fact", "google_place_id": "ChIJbVtrAiQhe0gRkJE8QnhrSAk"}, {"id": 745, "chain": "picturehouse", "name": "Clapham", "address": "76 Venn Street, London, SW4 0AT", "latitude": 51.462498, "longitude": -0.138121, "link": "https://www.picturehouses.com/cinema/clapham-picturehouse", "google_place_id": "ChIJ1_8BglIEdkgRSu8f5v7ESpM"}, {"id": 746, "chain": "picturehouse", "name": "Crouch End", "address": "165 Tottenham Lane, London, N8 9BY", "latitude": 51.581543, "longitude": -0.120788, "link": "https://www.picturehouses.com/cinema/crouch-end-picturehouse", "google_place_id": "ChIJa_6RCcEbdkgRqJf0QRNviVs"}, {"id": 747, "chain": "picturehouse", "name": "East Dulwich", "address": "116A Lordship Lane, London, SE22 8HD", "latitude": 51.45642, "longitude": -0.076172, "link": "https://www.picturehouses.com/cinema/east-dulwich", "google_place_id": "ChIJg8gr9pMDdkgRhIF02LqusN8"}, {"id": 748, "chain": "picturehouse", "name": "Finsbury Park", "address": "Unit 1, Cinema LS, 17 City N Pl, Finsbury Park, London, N4 3FU", "latitude": 51.565151, "longitude": -0.107574, "link": "https://www.picturehouses.com/cinema/finsbury-park", "google_place_id": "ChIJgdX8IZsbdkgRCb-4YbTyeWI"}, {"id": 750, "chain": "picturehouse", "name": "Greenwich", "address": "180 Greenwich High Road, London, SE10 8NN", "latitude": 51.479488, "longitude": -0.009667, "link": "https://www.picturehouses.com/cinema/greenwich-picturehouse", "google_place_id": "ChIJSe7FBoYCdkgRLwRO6w0FCsM"}, {"id": 751, "chain": "picturehouse", "name": "Hackney", "address": "270 Mare Street, London, E8 1HE", "latitude": 51.544676, "longitude": -0.055004, "link": "https://www.picturehouses.com/cinema/hackney-picturehouse", "google_place_id": "ChIJ582g7-QcdkgR7yaRfVM65YQ"}, {"id": 752, "chain": "picturehouse", "name": "Picturehouse Central", "address": "Picturehouse Central, Corner of Great Windmill Street and Shaftesbury Avenue, Piccadilly Circus, London, W1D 7DH", "latitude": 51.510689, "longitude": -0.133724, "link": "https://www.picturehouses.com/cinema/picturehouse-central", "google_place_id": "ChIJ3VekwdMEdkgRLykSZWGOPnk"}, {"id": 753, "chain": "picturehouse", "name": "Ritzy", "address": "Brixton Oval, Coldharbour Ln, London, SW2 1JG", "latitude": 51.461203, "longitude": -0.115018, "link": "https://www.picturehouses.com/cinema/the-ritzy", "google_place_id": "ChIJIy3uY2gEdkgR_Sjnydxzv3c"}, {"id": 755, "chain": "picturehouse", "name": "The Gate", "address": "87 Notting Hill Gate, London, W11 3JZ", "latitude": 51.508749, "longitude": -0.197197, "link": "https://www.picturehouses.com/cinema/the-gate", "google_place_id": "ChIJT2E2d_sPdkgRhhHK1rTv5z4"}, {"id": 757, "chain": "picturehouse", "name": "Cinema City", "address": "St Andrew's Street, Norwich, NR2 4AD", "latitude": 52.630484, "longitude": 1.296146, "link": "https://www.picturehouses.com/cinema/cinema-city-picturehouse", "google_place_id": "ChIJEVgebOfj2UcRxXSYG_yLV_U"}, {"id": 758, "chain": "picturehouse", "name": "Phoenix", "address": "57 Walton Street, Oxford, OX2 6AE", "latitude": 51.760278, "longitude": -1.266667, "link": "https://www.picturehouses.com/cinema/phoenix-picturehouse", "google_place_id": "ChIJFf5ml6DGdkgRbwmouPlMXZE"}, {"id": 759, "chain": "picturehouse", "name": "Harbour Lights", "address": "Ocean Village, Southampton, SO14 3TL", "latitude": 50.894671, "longitude": -1.393127, "link": "https://www.picturehouses.com/cinema/harbour-lights", "google_place_id": "ChIJeS_lYs-hc0gRvvWOcbsxp6I"}, {"id": 760, "chain": "picturehouse", "name": "City Screen", "address": "13-17 Coney Street, York, YO1 9QL", "latitude": 53.95917, "longitude": -1.08482, "link": "https://www.picturehouses.com/cinema/city-screen-picturehouse", "google_place_id": "ChIJ0XXEY6gxeUgRX4WKT7HRevc"}, {"id": 761, "chain": "cineworld", "name": "Barnsley", "address": "The Glass Works, Barnsley, S70 1GW", "latitude": 53.552805, "longitude": -1.478166, "link": "https://www.cineworld.co.uk/cinemas/barnsley", "google_place_id": "ChIJcUK9e9N6eUgRrFWjO1WjQ0c"}, {"id": 762, "chain": "reel", "name": "Blackburn", "address": "Nab Lane, Blackburn, BB2 1LN", "latitude": 53.748432, "longitude": -2.486919, "link": "https://reelcinemas.co.uk/blackburn", "google_place_id": "ChIJA3MTUqmfe0gR4k0GNDtStIM"}, {"id": 763, "chain": "reel", "name": "Borehamwood", "address": "Metropolis Centre, Borehamwood, Central, WD6 1EH", "latitude": 51.655419, "longitude": -0.275189, "link": "https://reelcinemas.co.uk/borehamwood", "google_place_id": "ChIJkeOAgOAVdkgRWOztPPwCcHg"}, {"id": 764, "chain": "reel", "name": "Bridgnorth", "address": "Whitburn Street, Bridgnorth, Midlands, WV16 4QP", "latitude": 52.535739, "longitude": -2.422253, "link": "https://reelcinemas.co.uk/bridgnorth", "google_place_id": "ChIJRUaEbhJ9cEgRqSC3WSSPk0Q"}, {"id": 765, "chain": "reel", "name": "Burnley", "address": "Hollywood Park, Centenary Way, Burnley, North, BB11 2EJ", "latitude": 53.791578, "longitude": -2.24568, "link": "https://reelcinemas.co.uk/burnley", "google_place_id": "ChIJjw0sECOXe0gRejUKO4BVWEk"}, {"id": 766, "chain": "reel", "name": "Chippenham", "address": "Marshfield Road, Chippenham, South West England, SN15 1JR", "latitude": 51.461956, "longitude": -2.12072, "link": "https://reelcinemas.co.uk/chippenham", "google_place_id": "ChIJnfmJDdt6cUgRL0nBNoTx01E"}, {"id": 767, "chain": "reel", "name": "Chorley", "address": "Unit 6,\u00a0Market Walk Extension, Union Street, Chorley, PR7 1FD", "latitude": 53.65424, "longitude": -2.628758, "link": "https://reelcinemas.co.uk/chorley", "google_place_id": "ChIJiV7uHl8Ne0gRLLZQcxBXbNc"}, {"id": 768, "chain": "reel", "name": "Fareham", "address": "Unit 4, 3 Vannes Parade, Market Quay, Fareham, Hampshire, PO16 0BX", "latitude": 50.851874, "longitude": -1.178245, "link": "https://reelcinemas.co.uk/fareham-hampshire", "google_place_id": "ChIJASYyPJdodEgRQteJxi5D5jo"}, {"id": 769, "chain": "reel", "name": "Hull", "address": "Cinema Unit - St Stephens, Hull, North, HU2 8LN", "latitude": 53.745078, "longitude": -0.347319, "link": "https://reelcinemas.co.uk/hull", "google_place_id": "ChIJAWwXsy--eEgRK8PxB9yPDCE"}, {"id": 770, "chain": "reel", "name": "Ilkeston", "address": "Pimlico Road, Ilkeston, Midlands, DE7 5QB", "latitude": 52.971237, "longitude": -1.309789, "link": "https://reelcinemas.co.uk/ilkeston", "google_place_id": "ChIJje7TZgzseUgRtXvcTaIZdzQ"}, {"id": 771, "chain": "reel", "name": "Morecambe", "address": "Central Drive, Morecambe, North, LA4 4DW", "latitude": 54.070714, "longitude": -2.874521, "link": "https://reelcinemas.co.uk/morecambe", "google_place_id": "ChIJOVFNkxKefEgRq0yZkomFOYY"}, {"id": 772, "chain": "reel", "name": "Port Talbot", "address": "Hollywood Park, Port Talbot, Wales, SA12 6QW", "latitude": 51.592614, "longitude": -3.812517, "link": "https://reelcinemas.co.uk/port-talbot", "google_place_id": "ChIJq6qqT81gbkgRCqoBx7ogVrY"}, {"id": 773, "chain": "reel", "name": "Quinton", "address": "Hagley Road West, Halesowen, Midlands, B62 9AS", "latitude": 52.46253, "longitude": -2.014051, "link": "https://reelcinemas.co.uk/quinton", "google_place_id": "ChIJA7lHUS6WcEgR5WS-SUHKqps"}, {"id": 774, "chain": "reel", "name": "Rochdale", "address": "Unit 22, Rochdale Riverside,, Riverside Walk,, OL16 1BE", "latitude": 53.617748, "longitude": -2.156008, "link": "https://reelcinemas.co.uk/rochdale", "google_place_id": "ChIJq8xjGEW5e0gRPWEl1KLw-s4"}, {"id": 775, "chain": "reel", "name": "Wakefield", "address": "Unit 104 -107, The Ridings Shopping Centre, Almshouse Lane, Wakefield, WF1 1DS", "latitude": 53.68206, "longitude": -1.495307, "link": "https://reelcinemas.co.uk/wakefield", "google_place_id": "ChIJW4HFW_5meUgRMGGrJHUw4uE"}, {"id": 776, "chain": "reel", "name": "Widnes", "address": "Earle Road, Widnes, North, WA8 0GY", "latitude": 53.362405, "longitude": -2.723038, "link": "https://reelcinemas.co.uk/widnes", "google_place_id": "ChIJQ91bSIcde0gRnQEIVSDxyZM"}, {"id": 777, "chain": "everyman", "name": "Durham", "address": "Unit C, Groundfloor, The Waterside, Milburngate House, Durham, DH1 5TQ", "latitude": 54.778878, "longitude": -1.578141, "link": "https://www.everymancinema.com/durham", "google_place_id": "ChIJweyW5V59fkgRjkUc_LwyReI"}, {"id": 778, "chain": "curzon", "name": "Kingston", "address": "The Bentall Centre, Wood St, Kingston upon Thames, London, KT1 1TP", "latitude": 51.411167, "longitude": -0.304579, "link": "https://www.curzon.com/venues/kingston/", "google_place_id": "ChIJ7eiT0uoLdkgR0yJ8rP39uuQ"}, {"id": 782, "chain": "vue", "name": "Aberdeen", "address": "Lighthouse Cinema, 10 Shiprow, Aberdeen, AB11 5BW", "latitude": 57.147132, "longitude": -2.094983, "link": "https://www.myvue.com/cinema/aberdeen/whats-on", "google_place_id": "ChIJM5_IGDwOhEgRgXIgRS0r2ho"}, {"id": 783, "chain": "vue", "name": "Accrington", "address": "The Viaduct, Hyndburn Road, Accrington, BB5 1QF", "latitude": 53.754718, "longitude": -2.369171, "link": "https://www.myvue.com/cinema/accrington/whats-on", "google_place_id": "ChIJK-iUs9-Ye0gRyBQpTm5mRAs"}, {"id": 784, "chain": "vue", "name": "Altrincham", "address": "Vue Altrincham, Denmark Street, Altrincham, WA14 2WG", "latitude": 53.384788, "longitude": -2.349074, "link": "https://www.myvue.com/cinema/altrincham/whats-on", "google_place_id": "ChIJMaEQRqOse0gRgY3mSc4nHt8"}, {"id": 785, "chain": "vue", "name": "Barrow", "address": "Hollywood Park, Hindpool Rd, Barrow-in-Furness, LA14 2NA", "latitude": 54.114942, "longitude": -3.239608, "link": "https://www.myvue.com/cinema/barrow/whats-on", "google_place_id": "ChIJK5C3YtiofEgRZDVb2fYPN8A"}, {"id": 786, "chain": "vue", "name": "Basingstoke Festival Place", "address": "Festival Place, New Market Square, Basingstoke, RG21 7BB", "latitude": 51.265345, "longitude": -1.083968, "link": "https://www.myvue.com/cinema/basingstoke-festival-place/whats-on", "google_place_id": "ChIJWSKjpYMhdEgR_xd7A_dqdHA"}, {"id": 787, "chain": "vue", "name": "Bedford", "address": "Riverside Square, Unit 4, Bedford, MK40 1AS", "latitude": 52.134685, "longitude": -0.469965, "link": "https://www.myvue.com/cinema/bedford/whats-on", "google_place_id": "ChIJVVVVVSGxd0gRXz2JZxyHU-g"}, {"id": 788, "chain": "vue", "name": "Bicester", "address": "Pioneer Centre, Bure Place, Bicester, OX26 6FA", "latitude": 51.898487, "longitude": -1.152799, "link": "https://www.myvue.com/cinema/bicester/whats-on", "google_place_id": "ChIJ4bGWJH3ndkgRkFjN9zGt5bA"}, {"id": 789, "chain": "vue", "name": "Birkenhead", "address": "Europa Boulevard, Conway Park, Birkenhead, CH41 4PE", "latitude": 53.392994, "longitude": -3.02371, "link": "https://www.myvue.com/cinema/birkenhead/whats-on", "google_place_id": "ChIJt_f6NSAne0gRbtw51T1zJyw"}, {"id": 790, "chain": "vue", "name": "Birmingham (Star City)", "address": "Star City, Unit 29, Watson Road, Birmingham, B7 5SA", "latitude": 52.505603, "longitude": -1.856617, "link": "https://www.myvue.com/cinema/birmingham/whats-on", "google_place_id": "ChIJI5EfXTi7cEgR6PQt8P78Pvk"}, {"id": 791, "chain": "vue", "name": "Blackburn", "address": "Peel Leisure and Retail Park, Lower Audley Street, Blackburn, BB1 1DG", "latitude": 53.745156, "longitude": -2.478971, "link": "https://www.myvue.com/cinema/blackburn/whats-on", "google_place_id": "ChIJvcBKWc-fe0gRU6El8Q3lBLo"}, {"id": 792, "chain": "vue", "name": "Bolton", "address": "Middlebrook Leisure Park, The Link Way (Off Mansel Way), Bolton, BL6 6JA", "latitude": 53.58193, "longitude": -2.533147, "link": "https://www.myvue.com/cinema/bolton/whats-on", "google_place_id": "ChIJJRDj8KkJe0gRJ3iIlCO5q6U"}, {"id": 793, "chain": "vue", "name": "Bristol Cribbs Causeway", "address": "The Venue, Cribbs Causeway, Merlin Road, Bristol, BS10 7SR", "latitude": 51.523405, "longitude": -2.604386, "link": "https://www.myvue.com/cinema/bristol-cribbs-causeway/whats-on", "google_place_id": "ChIJ9S_YbtOTcUgRy9e3jrFV4wk"}, {"id": 794, "chain": "vue", "name": "Bristol Longwell Green", "address": "Aspects Leisure Park - Unit 2, Avon Ring Road, Longwell Green, Bristol, BS15 9LA", "latitude": 51.449305, "longitude": -2.499475, "link": "https://www.myvue.com/cinema/bristol-longwell-green/whats-on", "google_place_id": "ChIJ7e-w_oCPcUgRqS-dN2_AZnE"}, {"id": 795, "chain": "vue", "name": "Bromley", "address": "6 St Mark's Square, Bromley, BR2 9UY", "latitude": 51.399761, "longitude": 0.014772, "link": "https://www.myvue.com/cinema/bromley/whats-on", "google_place_id": "ChIJ6VY2y-Cr2EcRFz1RrN5v7TE"},